Code établissement;Appellation officielle;Dénomination principale;Patronyme uai;Secteur Public/Privé;Adresse;Lieu dit;Boite postale;Code postal;Localite d'acheminement;Commune;Coordonnee X;Coordonnee Y;EPSG;Latitude;Longitude;Qualité d'appariement;Localisation;Code nature;Nature;Code état établissement;Etat établissement;Code département;Code région;Code académie;Code commune;Département;Région;Académie;Position;secteur_prive_code_type_contrat;secteur_prive_libelle_type_contrat;code_ministere;libelle_ministere;date_ouverture
0440022K;Lycée général Jules Verne;LYCEE GENERAL;JULES VERNE;Public;1 rue GENERAL MEUSNIER;;14217;44042;NANTES CEDEX 1;Nantes;355009.0;6689600.3;EPSG:2154;47.217000945239455;-1.5610097373813439;Parfaite;Numéro de rue;302;LYCEE D ENSEIGNEMENT GENERAL;1;OUVERT;044;52;17;44109;Loire-Atlantique;Pays de la Loire;Nantes;47.217000945239455, -1.5610097373813439;99;SANS OBJET;06;MINISTERE DE L'EDUCATION NATIONALE;1965-05-01
0440024M;Lycée général Gabriel Guist'Hau;LYCEE GENERAL;GABRIEL GUISTHAU;Public;3 rue MARIE ANNE DU BOCCAGE;;34201;44042;NANTES CEDEX 1;Nantes;354417.4;6689542.6;EPSG:2154;47.216174628191325;-1.568769563633372;Parfaite;Numéro de rue;302;LYCEE D ENSEIGNEMENT GENERAL;1;OUVERT;044;52;17;44109;Loire-Atlantique;Pays de la Loire;Nantes;47.216174628191325, -1.568769563633372;99;SANS OBJET;06;MINISTERE DE L'EDUCATION NATIONALE;1965-05-01
0440035Z;Lycée professionnel Léonard de Vinci;LYCEE PROFESSIONNEL;LEONARD DE VINCI;Public;31 rue DE LA BOTTIERE;;72821;44328;NANTES CEDEX 3;Nantes;358048.6;6691817.4;EPSG:2154;47.23850083080752;-1.5225893821168477;Parfaite;Numéro de rue;320;LYCEE PROFESSIONNEL;1;OUVERT;044;52;17;44109;Loire-Atlantique;Pays de la Loire;Nantes;47.23850083080752, -1.5225893821168477;99;SANS OBJET;06;MINISTERE DE L'EDUCATION NATIONALE;1949-02-21
0440045K;Collège Victor Hugo;COLLEGE;VICTOR HUGO;Public;40 rue DE BEL AIR;;;44042;NANTES CEDEX 1;Nantes;355210.5;6690319.6;EPSG:2154;47.223570482598525;-1.5589001194055196;Parfaite;Numéro de rue;340;COLLEGE;1;OUVERT;044;52;17;44109;Loire-Atlantique;Pays de la Loire;Nantes;47.223570482598525, -1.5589001194055196;99;SANS OBJET;06;MINISTERE DE L'EDUCATION NATIONALE;1965-05-01
0440163N;Lycée général et technologique privé Saint Stanislas;LYCEE GEN.ET TECHNOL.PRIVE;ST STANISLAS;Privé;2 rue SAINT STANISLAS;;;44009;NANTES CEDEX 1;Nantes;355426.4;6690291.7;EPSG:2154;47.22343184688967;-1.556030503195269;Parfaite;Numéro de rue;300;LYCEE ENSEIGNT GENERAL ET TECHNOLOGIQUE;1;OUVERT;044;52;17;44109;Loire-Atlantique;Pays de la Loire;Nantes;47.22343184688967, -1.556030503195269;30;CONTRAT D'ASSOCIATION TOUTES CLASSES;06;MINISTERE DE L'EDUCATION NATIONALE;1967-02-28
0440219Z;Collège privé Saint Jacques de Compostelle;COLLEGE PRIVE;ST J.DE COMPOSTELLE;Privé;11 rue GABRIEL GOUDY;;;44200;NANTES;Nantes;356485.2;6687129.1;EPSG:2154;47.1955557393812;-1.539660254937077;Parfaite;Numéro de rue;340;COLLEGE;1;OUVERT;044;52;17;44109;Loire-Atlantique;Pays de la Loire;Nantes;47.1955557393812, -1.539660254937077;30;CONTRAT D'ASSOCIATION TOUTES CLASSES;06;MINISTERE DE L'EDUCATION NATIONALE;1967-03-08
0440285W;Collège Gaston Serpette;COLLEGE;GASTON SERPETTE;Public;12 rue DU DOCTEUR RAPPIN;;;44000;NANTES;Nantes;353907.7;6690819.7;EPSG:2154;47.22738710438993;-1.5764704324721976;Parfaite;Numéro de rue;340;COLLEGE;1;OUVERT;044;52;17;44109;Loire-Atlantique;Pays de la Loire;Nantes;47.22738710438993, -1.5764704324721976;99;SANS OBJET;06;MINISTERE DE L'EDUCATION NATIONALE;1968-03-13
0440328T;Section d'enseignement général et professionnel adapté du Collège Libertaire Rutigliano;SEGPA;CLG LIBERTAIRE RUTIGLIANO;Public;60 rue DE L ERAUDIERE;;11906;44319;NANTES CEDEX 3;Nantes;356777.7;6692065.4;EPSG:2154;47.24007362725018;-1.5395495008832363;Parfaite;Numéro de rue;390;SECTION ENSEIGNT GEN. ET PROF. ADAPTE;1;OUVERT;044;52;17;44109;Loire-Atlantique;Pays de la Loire;Nantes;47.24007362725018, -1.5395495008832363;99;SANS OBJET;06;MINISTERE DE L'EDUCATION NATIONALE;1969-05-29
0440612B;Ecole élémentaire publique Agenêts;ECOLE ELEMENTAIRE PUBLIQUE;AGENETS (LES);Public;31 rue des Agenets;;;44000;NANTES;Nantes;357386.5;6690646.9;EPSG:2154;47.227639041972594;-1.530439778951194;Parfaite;Numéro de rue;151;ECOLE DE NIVEAU ELEMENTAIRE;1;OUVERT;044;52;17;44109;Loire-Atlantique;Pays de la Loire;Nantes;47.227639041972594, -1.530439778951194;99;SANS OBJET;06;MINISTERE DE L'EDUCATION NATIONALE;1970-01-07
0440644L;Ecole primaire publique Gay-Lussac;ECOLE PRIMAIRE PUBLIQUE;GAY-LUSSAC;Public;13 rue Corentin Bourveau;;;44300;NANTES;Nantes;358054.4;6690624.5;EPSG:2154;47.2277821750848;-1.521610387338125;Parfaite;Numéro de rue;151;ECOLE DE NIVEAU ELEMENTAIRE;1;OUVERT;044;52;17;44109;Loire-Atlantique;Pays de la Loire;Nantes;47.2277821750848, -1.521610387338125;99;SANS OBJET;06;MINISTERE DE L'EDUCATION NATIONALE;1970-01-07
0440663G;Ecole élémentaire publique La Mutualité;ECOLE ELEMENTAIRE PUBLIQUE;MUTUALITE (LA);Public;2 rue de la Mutualité;;;44100;NANTES;Nantes;352787.3;6688433.5;EPSG:2154;47.20535593918713;-1.5894206120523133;Parfaite;Numéro de rue;151;ECOLE DE NIVEAU ELEMENTAIRE;1;OUVERT;044;52;17;44109;Loire-Atlantique;Pays de la Loire;Nantes;47.20535593918713, -1.5894206120523133;99;SANS OBJET;06;MINISTERE DE L'EDUCATION NATIONALE;1970-01-08
0440665J;Ecole primaire publique Charles Lebourg;ECOLE PRIMAIRE PUBLIQUE;CHARLES LEBOURG;Public;5 rue Charles Lebourg;;;44300;NANTES;Nantes;355172.6;6691500.1;EPSG:2154;47.23416071369772;-1.5603005851508343;Parfaite;Numéro de rue;151;ECOLE DE NIVEAU ELEMENTAIRE;1;OUVERT;044;52;17;44109;Loire-Atlantique;Pays de la Loire;Nantes;47.23416071369772, -1.5603005851508343;99;SANS OBJET;06;MINISTERE DE L'EDUCATION NATIONALE;1970-01-08
0440670P;Ecole élémentaire publique Lucie Aubrac;ECOLE ELEMENTAIRE PUBLIQUE;LUCIE AUBRAC;Public;47 boulevard Jean Moulin;;;44100;NANTES;Nantes;352071.1;6688764.7;EPSG:2154;47.20795766111801;-1.5991205875703662;Parfaite;Numéro de rue;151;ECOLE DE NIVEAU ELEMENTAIRE;1;OUVERT;044;52;17;44109;Loire-Atlantique;Pays de la Loire;Nantes;47.20795766111801, -1.5991205875703662;99;SANS OBJET;06;MINISTERE DE L'EDUCATION NATIONALE;1970-01-08
0440678Y;Ecole élémentaire publique Gustave Roch;ECOLE ELEMENTAIRE PUBLIQUE;GUSTAVE ROCH;Public;24 boulevard Gustave Roch;;;44200;NANTES;Nantes;355750.9;6688177.6;EPSG:2154;47.2045992100751;-1.55014040009921;Parfaite;Numéro de rue;151;ECOLE DE NIVEAU ELEMENTAIRE;1;OUVERT;044;52;17;44109;Loire-Atlantique;Pays de la Loire;Nantes;47.2045992100751, -1.55014040009921;99;SANS OBJET;06;MINISTERE DE L'EDUCATION NATIONALE;1970-01-08
0440682C;Ecole primaire publique Léon Say;ECOLE PRIMAIRE PUBLIQUE;LEON SAY;Public;34 rue Léon Say;;;44000;NANTES;Nantes;354366.6;6691047.9;EPSG:2154;47.22967721927384;-1.5705902993023722;Parfaite;Numéro de rue;151;ECOLE DE NIVEAU ELEMENTAIRE;1;OUVERT;044;52;17;44109;Loire-Atlantique;Pays de la Loire;Nantes;47.22967721927384, -1.5705902993023722;99;SANS OBJET;06;MINISTERE DE L'EDUCATION NATIONALE;1970-01-08
0440698V;Ecole maternelle publique Louis Guiotton;ECOLE MATERNELLE PUBLIQUE;LOUIS GUIOTTON;Public;7 rue Champenois;;;44000;NANTES;Nantes;357588.1;6690395.6;EPSG:2154;47.225484434207175;-1.527589500738502;Parfaite;Numéro de rue;101;ECOLE MATERNELLE;1;OUVERT;044;52;17;44109;Loire-Atlantique;Pays de la Loire;Nantes;47.225484434207175, -1.527589500738502;99;SANS OBJET;06;MINISTERE DE L'EDUCATION NATIONALE;1970-01-08
0440699W;Ecole maternelle publique La Chauvinière;ECOLE MATERNELLE PUBLIQUE;CHAUVINIERE (LA);Public;32 boulevard de la Chauvinière;;;44300;NANTES;Nantes;354252.7;6693683.1;EPSG:2154;47.25330179589951;-1.5741094968727076;Parfaite;Numéro de rue;101;ECOLE MATERNELLE;1;OUVERT;044;52;17;44109;Loire-Atlantique;Pays de la Loire;Nantes;47.25330179589951, -1.5741094968727076;99;SANS OBJET;06;MINISTERE DE L'EDUCATION NATIONALE;1970-01-08
0440704B;Ecole maternelle publique Dervallières Chézine;ECOLE MATERNELLE PUBLIQUE;DERVALLIERES CHEZINE;Public;1 rue Auguste Lepère;;;44100;NANTES;Nantes;352289.1;6690799.4;EPSG:2154;47.226358625154745;-1.5978097645261533;Parfaite;Numéro de rue;101;ECOLE MATERNELLE;1;OUVERT;044;52;17;44109;Loire-Atlantique;Pays de la Loire;Nantes;47.226358625154745, -1.5978097645261533;99;SANS OBJET;06;MINISTERE DE L'EDUCATION NATIONALE;1970-01-08
0440707E;Ecole maternelle publique Fonteny;ECOLE MATERNELLE PUBLIQUE;FONTENY;Public;33 rue du Fonteny;;;44100;NANTES;Nantes;352524.8;6688391.0;EPSG:2154;47.204836641471516;-1.5928498537134435;Parfaite;Numéro de rue;101;ECOLE MATERNELLE;1;OUVERT;044;52;17;44109;Loire-Atlantique;Pays de la Loire;Nantes;47.204836641471516, -1.5928498537134435;99;SANS OBJET;06;MINISTERE DE L'EDUCATION NATIONALE;1970-01-08
0440720U;Ecole maternelle publique Sully;ECOLE MATERNELLE PUBLIQUE;SULLY;Public;8 allée de la Reine Margot;;;44000;NANTES;Nantes;355896.4;6690199.2;EPSG:2154;47.222844318033104;-1.5497594176652918;Parfaite;Numéro de rue;101;ECOLE MATERNELLE;1;OUVERT;044;52;17;44109;Loire-Atlantique;Pays de la Loire;Nantes;47.222844318033104, -1.5497594176652918;99;SANS OBJET;06;MINISTERE DE L'EDUCATION NATIONALE;1970-01-08
0440723X;Ecole maternelle publique Gaston Serpette;ECOLE MATERNELLE PUBLIQUE;GASTON SERPETTE;Public;23 rue Edmond Bire;;;44000;NANTES;Nantes;353908.1;6690877.5;EPSG:2154;47.227906793044;-1.5765094030263727;Parfaite;Numéro de rue;101;ECOLE MATERNELLE;1;OUVERT;044;52;17;44109;Loire-Atlantique;Pays de la Loire;Nantes;47.227906793044, -1.5765094030263727;99;SANS OBJET;06;MINISTERE DE L'EDUCATION NATIONALE;1970-01-09
0440725Z;Ecole maternelle publique Jean Zay 1;ECOLE MATERNELLE PUBLIQUE;JEAN ZAY GPE 1;Public;15 bis rue Yves Kartel;;;44100;NANTES;Nantes;351463.1;6688869.5;EPSG:2154;47.20858063440812;-1.6072199996714536;Correcte;Numéro de rue;101;ECOLE MATERNELLE;1;OUVERT;044;52;17;44109;Loire-Atlantique;Pays de la Loire;Nantes;47.20858063440812, -1.6072199996714536;99;SANS OBJET;06;MINISTERE DE L'EDUCATION NATIONALE;1970-01-09
0440727B;Ecole maternelle publique Alain Fournier;ECOLE MATERNELLE PUBLIQUE;ALAIN-FOURNIER;Public;87 rue du Bois Hardy;;;44100;NANTES;Nantes;351929.5;6688311.9;EPSG:2154;47.20381391728616;-1.6006397690773353;Parfaite;Numéro de rue;101;ECOLE MATERNELLE;1;OUVERT;044;52;17;44109;Loire-Atlantique;Pays de la Loire;Nantes;47.20381391728616, -1.6006397690773353;99;SANS OBJET;06;MINISTERE DE L'EDUCATION NATIONALE;1970-01-09
0441034K;Ecole élémentaire publique La Contrie;ECOLE ELEMENTAIRE PUBLIQUE;CONTRIE (LA);Public;19 rue de la Petite Reine;;;44100;NANTES;Nantes;352065.2;6689624.5;EPSG:2154;47.21568197619949;-1.5998597249344466;Parfaite;Numéro de rue;151;ECOLE DE NIVEAU ELEMENTAIRE;1;OUVERT;044;52;17;44109;Loire-Atlantique;Pays de la Loire;Nantes;47.21568197619949, -1.5998597249344466;99;SANS OBJET;06;MINISTERE DE L'EDUCATION NATIONALE;1970-09-17
0441432T;Ecole primaire privée Sainte Thérèse;ECOLE PRIMAIRE PRIVEE;STE THERESE;Privé;11 rue de la Papotière;;;44300;NANTES;Nantes;359538.3;6691553.0;EPSG:2154;47.23689044866711;-1.5027304583489356;Parfaite;Numéro de rue;151;ECOLE DE NIVEAU ELEMENTAIRE;1;OUVERT;044;52;17;44109;Loire-Atlantique;Pays de la Loire;Nantes;47.23689044866711, -1.5027304583489356;30;CONTRAT D'ASSOCIATION TOUTES CLASSES;06;MINISTERE DE L'EDUCATION NATIONALE;1971-03-19
0441434V;Ecole primaire privée Saint Jean XXIII;ECOLE PRIMAIRE PRIVEE;ST JEAN XXIII;Privé;25 rue Alphonse Daudet;;;44000;NANTES;Nantes;354711.4;6690758.7;EPSG:2154;47.2272574883577;-1.5658200052942055;Parfaite;Numéro de rue;151;ECOLE DE NIVEAU ELEMENTAIRE;1;OUVERT;044;52;17;44109;Loire-Atlantique;Pays de la Loire;Nantes;47.2272574883577, -1.5658200052942055;30;CONTRAT D'ASSOCIATION TOUTES CLASSES;06;MINISTERE DE L'EDUCATION NATIONALE;1971-03-19
0441438Z;Ecole primaire privée Sainte Claire d'Assise;ECOLE PRIMAIRE PRIVEE;STE CLAIRE D ASSISE;Privé;70 rue de la Bourgeonnière;;;44300;NANTES;Nantes;355555.8;6693659.3;EPSG:2154;47.25376579929603;-1.5568901360783372;Parfaite;Numéro de rue;151;ECOLE DE NIVEAU ELEMENTAIRE;1;OUVERT;044;52;17;44109;Loire-Atlantique;Pays de la Loire;Nantes;47.25376579929603, -1.5568901360783372;30;CONTRAT D'ASSOCIATION TOUTES CLASSES;06;MINISTERE DE L'EDUCATION NATIONALE;1971-03-19
0441471K;Ecole primaire privée Notre-Dame de Lourdes;ECOLE PRIMAIRE PRIVEE;N-D.DE LOURDES;Privé;3 rue Jean-Baptiste Olivaux;;;44300;NANTES;Nantes;354146.4;6693457.2;EPSG:2154;47.25121611511503;-1.5753396876287453;Parfaite;Numéro de rue;151;ECOLE DE NIVEAU ELEMENTAIRE;1;OUVERT;044;52;17;44109;Loire-Atlantique;Pays de la Loire;Nantes;47.25121611511503, -1.5753396876287453;30;CONTRAT D'ASSOCIATION TOUTES CLASSES;06;MINISTERE DE L'EDUCATION NATIONALE;1971-03-22
0441494K;Ecole primaire privée Notre-Dame de Toutes Aides;ECOLE PRIMAIRE PRIVEE;N-D.DE TOUTES AIDES;Privé;8 rue Denis Papin;;;44000;NANTES;Nantes;357993.3;6690152.8;EPSG:2154;47.2235110953817;-1.5220597440100478;Parfaite;Numéro de rue;151;ECOLE DE NIVEAU ELEMENTAIRE;1;OUVERT;044;52;17;44109;Loire-Atlantique;Pays de la Loire;Nantes;47.2235110953817, -1.5220597440100478;30;CONTRAT D'ASSOCIATION TOUTES CLASSES;06;MINISTERE DE L'EDUCATION NATIONALE;1971-03-19
0441515H;Ecole élémentaire publique Jean Moulin;ECOLE ELEMENTAIRE PUBLIQUE;JEAN MOULIN;Public;5 rue de Chypre;;;44000;NANTES;Nantes;357859.8;6689293.1;EPSG:2154;47.21571537576598;-1.5231706180596947;Parfaite;Numéro de rue;151;ECOLE DE NIVEAU ELEMENTAIRE;1;OUVERT;044;52;17;44109;Loire-Atlantique;Pays de la Loire;Nantes;47.21571537576598, -1.5231706180596947;99;SANS OBJET;06;MINISTERE DE L'EDUCATION NATIONALE;1971-06-16
0441545R;Collège La Noé Lambert;COLLEGE;LA NOE LAMBERT;Public;42 boulevard DES POILUS;;;44300;NANTES;Nantes;357653.1;6691118.7;EPSG:2154;47.23201709108662;-1.5272795035778097;Parfaite;Numéro de rue;340;COLLEGE;1;OUVERT;044;52;17;44109;Loire-Atlantique;Pays de la Loire;Nantes;47.23201709108662, -1.5272795035778097;99;SANS OBJET;06;MINISTERE DE L'EDUCATION NATIONALE;1972-01-25
0441571U;Ecole élémentaire publique Louise Michel;ECOLE ELEMENTAIRE PUBLIQUE;LOUISE MICHEL;Public;21 rue Paul Ramadier;;;44200;NANTES;Nantes;357202.0;6688213.0;EPSG:2154;47.205668179379586;-1.5310293514205147;Parfaite;Numéro de rue;151;ECOLE DE NIVEAU ELEMENTAIRE;1;OUVERT;044;52;17;44109;Loire-Atlantique;Pays de la Loire;Nantes;47.205668179379586, -1.5310293514205147;99;SANS OBJET;06;MINISTERE DE L'EDUCATION NATIONALE;1972-05-23
0441695D;Ecole élémentaire publique Ange Guépin école ouverte;ECOLE ELEMENTAIRE PUBLIQUE;FREINET ANGE GUEPIN;Public;4 rue Révolution des Oeillets;;;44000;NANTES;Nantes;358147.5;6689499.8;EPSG:2154;47.217721409361815;-1.5195316985045744;Parfaite;Numéro de rue;151;ECOLE DE NIVEAU ELEMENTAIRE;1;OUVERT;044;52;17;44109;Loire-Atlantique;Pays de la Loire;Nantes;47.217721409361815, -1.5195316985045744;99;SANS OBJET;06;MINISTERE DE L'EDUCATION NATIONALE;1975-05-05
0441740C;Ecole maternelle publique Georges Lafont;ECOLE MATERNELLE PUBLIQUE;GEORGES LAFONT;Public;56 rue Georges Lafont;;;44300;NANTES;Nantes;353493.3;6691956.9;EPSG:2154;47.237391446669406;-1.5828096308269701;Parfaite;Numéro de rue;101;ECOLE MATERNELLE;1;OUVERT;044;52;17;44109;Loire-Atlantique;Pays de la Loire;Nantes;47.237391446669406, -1.5828096308269701;99;SANS OBJET;06;MINISTERE DE L'EDUCATION NATIONALE;1976-04-23
0441782Y;Lycée professionnel agricole de Nantes - le Grand-Blottereau;LYCEE PROFESSIONNEL AGRICOLE;DE NANTES - GD BLOTTEREAU;Public;34 chemin du ponceau;;;44300;NANTES;Nantes;358786.3;6690382.0;EPSG:2154;47.22597929101644;-1.511770390040611;Parfaite;Numéro de rue;320;LYCEE PROFESSIONNEL;1;OUVERT;044;52;17;44109;Loire-Atlantique;Pays de la Loire;Nantes;47.22597929101644, -1.511770390040611;99;SANS OBJET;03;AGRICULTURE;1977-09-07
0441821R;Collège Jules Verne;COLLEGE;JULES VERNE;Public;1 rue DU GENERAL MEUSNIER;;14217;44042;NANTES CEDEX 1;Nantes;355004.8;6689619.8;EPSG:2154;47.21717402221057;-1.5610800155599538;Parfaite;Numéro de rue;340;COLLEGE;1;OUVERT;044;52;17;44109;Loire-Atlantique;Pays de la Loire;Nantes;47.21717402221057, -1.5610800155599538;99;SANS OBJET;06;MINISTERE DE L'EDUCATION NATIONALE;1977-03-24
0441924C;Ecole élémentaire publique La Beaujoire;ECOLE ELEMENTAIRE PUBLIQUE;BEAUJOIRE (LA);Public;10 avenue Gare de St Joseph;;;44300;NANTES;Nantes;358032.7;6693389.5;EPSG:2154;47.25262240321143;-1.523989162870229;Correcte;Rue;151;ECOLE DE NIVEAU ELEMENTAIRE;1;OUVERT;044;52;17;44109;Loire-Atlantique;Pays de la Loire;Nantes;47.25262240321143, -1.523989162870229;99;SANS OBJET;06;MINISTERE DE L'EDUCATION NATIONALE;1980-09-01
0441937S;Collège privé Saint-Donatien;COLLEGE PRIVE;ST DONATIEN;Privé;6 rue GUILLET DE LA BROSSE;;60105;44000;NANTES;Nantes;356396.9;6690941.1;EPSG:2154;47.22977163313696;-1.543720222749875;Parfaite;Numéro de rue;340;COLLEGE;1;OUVERT;044;52;17;44109;Loire-Atlantique;Pays de la Loire;Nantes;47.22977163313696, -1.543720222749875;30;CONTRAT D'ASSOCIATION TOUTES CLASSES;06;MINISTERE DE L'EDUCATION NATIONALE;1980-09-01
0442035Y;Ecole élémentaire publique Le Linot;ECOLE ELEMENTAIRE PUBLIQUE;LINOT (LE);Public;45 rue du Port des Charrettes;;;44300;NANTES;Nantes;357864.6;6695120.2;EPSG:2154;47.26809083157482;-1.527519502347513;Parfaite;Numéro de rue;151;ECOLE DE NIVEAU ELEMENTAIRE;1;OUVERT;044;52;17;44109;Loire-Atlantique;Pays de la Loire;Nantes;47.26809083157482, -1.527519502347513;99;SANS OBJET;06;MINISTERE DE L'EDUCATION NATIONALE;1984-09-01
0442048M;Ecole maternelle publique La Côte d'Or;ECOLE MATERNELLE PUBLIQUE;COTE D'OR (LA);Public;1 avenue Castellano;;;44300;NANTES;Nantes;354327.9;6693006.9;EPSG:2154;47.24726364710143;-1.5725993880822748;Parfaite;Numéro de rue;101;ECOLE MATERNELLE;1;OUVERT;044;52;17;44109;Loire-Atlantique;Pays de la Loire;Nantes;47.24726364710143, -1.5725993880822748;99;SANS OBJET;06;MINISTERE DE L'EDUCATION NATIONALE;1985-09-01
0442400V;Ecole primaire publique Les Réformes;ECOLE PRIMAIRE PUBLIQUE;REFORMES (LES);Public;12 rue des Réformes;;;44100;NANTES;Nantes;352622.2;6687811.5;EPSG:2154;47.19967933229809;-1.5911204854870449;Parfaite;Numéro de rue;151;ECOLE DE NIVEAU ELEMENTAIRE;1;OUVERT;044;52;17;44109;Loire-Atlantique;Pays de la Loire;Nantes;47.19967933229809, -1.5911204854870449;99;SANS OBJET;06;MINISTERE DE L'EDUCATION NATIONALE;1999-09-01
0442486N;Section d'enseignement général et professionnel adapté privée du collège externat des enfants nantais;SEGPA PRIVEE;CLG EXTERNAT ENFANTS NANTAIS;Privé;31 avenue CAMUS;;;44042;NANTES CEDEX 1;Nantes;354113.0;6689836.4;EPSG:2154;47.2186566443288;-1.573009587134183;Parfaite;Numéro de rue;390;SECTION ENSEIGNT GEN. ET PROF. ADAPTE;1;OUVERT;044;52;17;44109;Loire-Atlantique;Pays de la Loire;Nantes;47.2186566443288, -1.573009587134183;30;CONTRAT D'ASSOCIATION TOUTES CLASSES;06;MINISTERE DE L'EDUCATION NATIONALE;2002-06-14
0442487P;Section d'enseignement général et professionnel adapté privée du collège notre-dame de toutes aides;SEGPA PRIVEE;CLG NOTRE-DAME DE TOUTES AIDES;Privé;12 rue des Epinettes;;;44300;NANTES;Nantes;358216.3;6690680.1;EPSG:2154;47.22836530022264;-1.519516261723193;Parfaite;Numéro de rue;390;SECTION ENSEIGNT GEN. ET PROF. ADAPTE;1;OUVERT;044;52;17;44109;Loire-Atlantique;Pays de la Loire;Nantes;47.22836530022264, -1.519516261723193;30;CONTRAT D'ASSOCIATION TOUTES CLASSES;06;MINISTERE DE L'EDUCATION NATIONALE;2002-06-14
0442649R;Ecole Silvya Terrade Nantes;ECOLE 2D DEGRE PROF.PRIVEE;ECOLE SILVYA TERRADE NANTES;Privé;1 place DE LA GALARNE;;;44200;NANTES;Nantes;357318.9;6688533.9;EPSG:2154;47.208612750788454;-1.5297306351550042;Parfaite;Numéro de rue;320;LYCEE PROFESSIONNEL;1;OUVERT;044;52;17;44109;Loire-Atlantique;Pays de la Loire;Nantes;47.208612750788454, -1.5297306351550042;10;HORS CONTRAT;06;MINISTERE DE L'EDUCATION NATIONALE;2009-03-16
0442966K;Ecole primaire publique Alice Guy;ECOLE PRIMAIRE PUBLIQUE;ALICE GUY;Public;34 rue Marianne;;;44000;NANTES;Nantes;356899.3;6690783.3;EPSG:2154;47.228613287626075;-1.5369714711858722;Parfaite;Numéro de rue;151;ECOLE DE NIVEAU ELEMENTAIRE;1;OUVERT;044;52;17;44109;Loire-Atlantique;Pays de la Loire;Nantes;47.228613287626075, -1.5369714711858722;99;SANS OBJET;06;MINISTERE DE L'EDUCATION NATIONALE;2022-09-01
0440021J;Lycée général  Clemenceau;LYCEE GENERAL;CLEMENCEAU;Public;1 rue GEORGES CLEMENCEAU;;74205;44042;NANTES CEDEX 1;Nantes;356286.2;6689717.3;EPSG:2154;47.21871508140165;-1.5442505529618926;Parfaite;Numéro de rue;302;LYCEE D ENSEIGNEMENT GENERAL;1;OUVERT;044;52;17;44109;Loire-Atlantique;Pays de la Loire;Nantes;47.21871508140165, -1.5442505529618926;99;SANS OBJET;06;MINISTERE DE L'EDUCATION NATIONALE;1965-05-01
0440036A;Lycée professionnel Louis-Antoine de Bougainville;LYCEE PROFESSIONNEL;DE BOUGAINVILLE;Public;2 rue EUGENE LE ROUX;;;44000;NANTES;Nantes;352461.7;6687634.4;EPSG:2154;47.19800365454265;-1.5931009564879561;Parfaite;Numéro de rue;320;LYCEE PROFESSIONNEL;1;OUVERT;044;52;17;44109;Loire-Atlantique;Pays de la Loire;Nantes;47.19800365454265, -1.5931009564879561;99;SANS OBJET;06;MINISTERE DE L'EDUCATION NATIONALE;1965-05-01
0440154D;Lycée général privé Blanche de Castille;LYCEE GENERAL PRIVE;BLANCHE DE CASTILLE;Privé;43  BOULEVARD JULES VERNE;;61902;44319;NANTES CEDEX 3;Nantes;357223.3;6691683.8;EPSG:2154;47.236874235960315;-1.5333793806092841;Correcte;Numéro de rue;302;LYCEE D ENSEIGNEMENT GENERAL;1;OUVERT;044;52;17;44109;Loire-Atlantique;Pays de la Loire;Nantes;47.236874235960315, -1.5333793806092841;30;CONTRAT D'ASSOCIATION TOUTES CLASSES;06;MINISTERE DE L'EDUCATION NATIONALE;1967-02-28
0440166S;Lycée général privé Notre-Dame de Toutes Aides;LYCEE GENERAL PRIVE;ND DE TOUTES AIDES;Privé;12 rue des Epinettes;;;44319;NANTES CEDEX 3;Nantes;358216.3;6690680.1;EPSG:2154;47.22836530022264;-1.519516261723193;Parfaite;Numéro de rue;302;LYCEE D ENSEIGNEMENT GENERAL;1;OUVERT;044;52;17;44109;Loire-Atlantique;Pays de la Loire;Nantes;47.22836530022264, -1.519516261723193;30;CONTRAT D'ASSOCIATION TOUTES CLASSES;06;MINISTERE DE L'EDUCATION NATIONALE;1967-02-28
0440203G;Collège privé Saint-Martin;COLLEGE PRIVE;ST MARTIN;Privé;38 bis rue DE L ABBAYE;;;44100;NANTES;Nantes;352302.2;6687954.4;EPSG:2154;47.20079616233207;-1.5954500192719163;Parfaite;Numéro de rue;340;COLLEGE;1;OUVERT;044;52;17;44109;Loire-Atlantique;Pays de la Loire;Nantes;47.20079616233207, -1.5954500192719163;30;CONTRAT D'ASSOCIATION TOUTES CLASSES;06;MINISTERE DE L'EDUCATION NATIONALE;1967-03-07
0440246D;Lycée polyvalent privé Sacré-Coeur La Salle;LYCEE POLYVALENT PRIVE;SACRE COEUR LA SALLE;Privé;3  RUE FRANCIS PORTAIS;;;44107;NANTES CEDEX 4;Nantes;351347.6;6688708.8;EPSG:2154;47.20707571353516;-1.6086194596202426;Parfaite;Numéro de rue;306;LYCEE POLYVALENT;1;OUVERT;044;52;17;44109;Loire-Atlantique;Pays de la Loire;Nantes;47.20707571353516, -1.6086194596202426;30;CONTRAT D'ASSOCIATION TOUTES CLASSES;06;MINISTERE DE L'EDUCATION NATIONALE;1968-09-30
0440283U;Collège Libertaire Rutigliano;COLLEGE;LIBERTAIRE RUTIGLIANO;Public;60 rue DE L ERAUDIERE;;11906;44319;NANTES CEDEX 3;Nantes;356777.4;6692074.0;EPSG:2154;47.24015076665847;-1.5395599920872018;Parfaite;Numéro de rue;340;COLLEGE;1;OUVERT;044;52;17;44109;Loire-Atlantique;Pays de la Loire;Nantes;47.24015076665847, -1.5395599920872018;99;SANS OBJET;06;MINISTERE DE L'EDUCATION NATIONALE;1968-03-13
0440284V;Collège Stendhal;COLLEGE;STENDHAL;Public;88 rue DES RENARDS;;72224;44322;NANTES CEDEX 3;Nantes;354635.7;6694567.6;EPSG:2154;47.26145073794815;-1.569730300413915;Parfaite;Numéro de rue;340;COLLEGE;1;OUVERT;044;52;17;44109;Loire-Atlantique;Pays de la Loire;Nantes;47.26145073794815, -1.569730300413915;99;SANS OBJET;06;MINISTERE DE L'EDUCATION NATIONALE;1968-03-13
0440286X;Collège Claude Debussy;COLLEGE;CLAUDE DEBUSSY;Public;1  RUE DU DOUBS;;;44100;NANTES;Nantes;351550.9;6688309.3;EPSG:2154;47.20359196670048;-1.6056305962624915;Parfaite;Numéro de rue;340;COLLEGE;1;OUVERT;044;52;17;44109;Loire-Atlantique;Pays de la Loire;Nantes;47.20359196670048, -1.6056305962624915;99;SANS OBJET;06;MINISTERE DE L'EDUCATION NATIONALE;1968-03-13
0440309X;Collège Rosa Parks;COLLEGE;ROSA PARKS;Public;91 boulevard Pierre de Coubertin;;;44100;NANTES;Nantes;352779.2;6691276.6;EPSG:2154;47.23090401945198;-1.5917102604048903;Parfaite;Numéro de rue;340;COLLEGE;1;OUVERT;044;52;17;44109;Loire-Atlantique;Pays de la Loire;Nantes;47.23090401945198, -1.5917102604048903;99;SANS OBJET;06;MINISTERE DE L'EDUCATION NATIONALE;1971-02-15
0440320J;Section d'enseignement général et professionnel adapté du Collège Chantenay;SEGPA;CLG CHANTENAY;Public;62 rue AMIRAL DU CHAFFAULT;;;44107;NANTES CEDEX 4;Nantes;353283.6;6688600.0;EPSG:2154;47.207111730025204;-1.583002894384955;Parfaite;Numéro de rue;390;SECTION ENSEIGNT GEN. ET PROF. ADAPTE;1;OUVERT;044;52;17;44109;Loire-Atlantique;Pays de la Loire;Nantes;47.207111730025204, -1.583002894384955;99;SANS OBJET;06;MINISTERE DE L'EDUCATION NATIONALE;1971-02-15
0440536U;Collège Sophie Germain;COLLEGE;SOPHIE GERMAIN;Public;19  MAIL PABLO PICASSO;;;44000;NANTES;Nantes;356873.3;6689261.9;EPSG:2154;47.214925766511755;-1.5361600679820884;Parfaite;Numéro de rue;340;COLLEGE;1;OUVERT;044;52;17;44109;Loire-Atlantique;Pays de la Loire;Nantes;47.214925766511755, -1.5361600679820884;99;SANS OBJET;06;MINISTERE DE L'EDUCATION NATIONALE;1970-02-11
0440617G;Ecole élémentaire publique Le Baut;ECOLE ELEMENTAIRE PUBLIQUE;BAUT (LE);Public;2 rue des Renards;;;44300;NANTES;Nantes;355132.8;6693720.4;EPSG:2154;47.25409516272482;-1.5625205098062624;Parfaite;Numéro de rue;151;ECOLE DE NIVEAU ELEMENTAIRE;1;OUVERT;044;52;17;44109;Loire-Atlantique;Pays de la Loire;Nantes;47.25409516272482, -1.5625205098062624;99;SANS OBJET;06;MINISTERE DE L'EDUCATION NATIONALE;1970-01-07
0440649S;Ecole élémentaire publique Jean Jaurès;ECOLE ELEMENTAIRE PUBLIQUE;JEAN JAURES;Public;11 rue Jean Jaurès;;;44000;NANTES;Nantes;355128.0;6689863.5;EPSG:2154;47.21942834132681;-1.5596406826129705;Parfaite;Numéro de rue;151;ECOLE DE NIVEAU ELEMENTAIRE;1;OUVERT;044;52;17;44109;Loire-Atlantique;Pays de la Loire;Nantes;47.21942834132681, -1.5596406826129705;99;SANS OBJET;06;MINISTERE DE L'EDUCATION NATIONALE;1970-01-07
0440664H;Ecole primaire publique Rue Noire;ECOLE PRIMAIRE PUBLIQUE;RUE NOIRE;Public;45 rue Noire;;;44000;NANTES;Nantes;354870.4;6690480.5;EPSG:2154;47.22483983198892;-1.5635098287619005;Parfaite;Numéro de rue;151;ECOLE DE NIVEAU ELEMENTAIRE;1;OUVERT;044;52;17;44109;Loire-Atlantique;Pays de la Loire;Nantes;47.22483983198892, -1.5635098287619005;99;SANS OBJET;06;MINISTERE DE L'EDUCATION NATIONALE;1970-01-08
0440668M;Ecole élémentaire publique Plessis Cellier;ECOLE ELEMENTAIRE PUBLIQUE;PLESSIS CELLIER;Public;59 rue des Alouettes;;;44100;NANTES;Nantes;351499.6;6688066.0;EPSG:2154;47.201378399311054;-1.6061197417294204;Parfaite;Numéro de rue;151;ECOLE DE NIVEAU ELEMENTAIRE;1;OUVERT;044;52;17;44109;Loire-Atlantique;Pays de la Loire;Nantes;47.201378399311054, -1.6061197417294204;99;SANS OBJET;06;MINISTERE DE L'EDUCATION NATIONALE;1970-01-08
0440684E;Ecole élémentaire publique Stalingrad;ECOLE ELEMENTAIRE PUBLIQUE;STALINGRAD;Public;12 boulevard de Stalingrad;;;44000;NANTES;Nantes;356814.5;6689728.7;EPSG:2154;47.21909089452489;-1.537289909996826;Parfaite;Numéro de rue;151;ECOLE DE NIVEAU ELEMENTAIRE;1;OUVERT;044;52;17;44109;Loire-Atlantique;Pays de la Loire;Nantes;47.21909089452489, -1.537289909996826;99;SANS OBJET;06;MINISTERE DE L'EDUCATION NATIONALE;1970-01-08
0440685F;Ecole primaire publique Villa Maria;ECOLE PRIMAIRE PUBLIQUE;VILLA MARIA;Public;12 rue Villa Maria;;;44000;NANTES;Nantes;355063.0;6691136.7;EPSG:2154;47.23083764925511;-1.561469492062739;Parfaite;Numéro de rue;151;ECOLE DE NIVEAU ELEMENTAIRE;1;OUVERT;044;52;17;44109;Loire-Atlantique;Pays de la Loire;Nantes;47.23083764925511, -1.561469492062739;99;SANS OBJET;06;MINISTERE DE L'EDUCATION NATIONALE;1970-01-22
0440688J;Ecole élémentaire publique Jean Zay;ECOLE ELEMENTAIRE PUBLIQUE;JEAN ZAY;Public;15 bis rue Yves Kartel;;;44100;NANTES;Nantes;351408.9;6688940.4;EPSG:2154;47.20918938484029;-1.6079894606138896;Parfaite;Numéro de rue;151;ECOLE DE NIVEAU ELEMENTAIRE;1;OUVERT;044;52;17;44109;Loire-Atlantique;Pays de la Loire;Nantes;47.20918938484029, -1.6079894606138896;99;SANS OBJET;06;MINISTERE DE L'EDUCATION NATIONALE;1970-01-08
0440702Z;Ecole maternelle publique Le Coudray;ECOLE MATERNELLE PUBLIQUE;COUDRAY (LE);Public;2 rue Pierre Benoît;;;44000;NANTES;Nantes;356460.7;6691417.1;EPSG:2154;47.23408283123443;-1.543240174039675;Parfaite;Numéro de rue;101;ECOLE MATERNELLE;1;OUVERT;044;52;17;44109;Loire-Atlantique;Pays de la Loire;Nantes;47.23408283123443, -1.543240174039675;99;SANS OBJET;06;MINISTERE DE L'EDUCATION NATIONALE;1970-01-08
0440713L;Ecole maternelle publique Maisdon Pajot;ECOLE MATERNELLE PUBLIQUE;MAISDON PAJOT;Public;22 rue Maisdon Pajot;;;44100;NANTES;Nantes;353203.3;6689537.3;EPSG:2154;47.21549382011315;-1.584780502779314;Parfaite;Numéro de rue;101;ECOLE MATERNELLE;1;OUVERT;044;52;17;44109;Loire-Atlantique;Pays de la Loire;Nantes;47.21549382011315, -1.584780502779314;99;SANS OBJET;06;MINISTERE DE L'EDUCATION NATIONALE;1970-01-08
0440714M;Ecole maternelle publique Henri Bergson;ECOLE MATERNELLE PUBLIQUE;HENRI BERGSON;Public;5 rue de Madrid;;;44000;NANTES;Nantes;357260.4;6689124.6;EPSG:2154;47.21389170661774;-1.5309497710235014;Parfaite;Numéro de rue;101;ECOLE MATERNELLE;1;OUVERT;044;52;17;44109;Loire-Atlantique;Pays de la Loire;Nantes;47.21389170661774, -1.5309497710235014;99;SANS OBJET;06;MINISTERE DE L'EDUCATION NATIONALE;1970-01-08
0440718S;Ecole maternelle publique Plessis Cellier;ECOLE MATERNELLE PUBLIQUE;PLESSIS CELLIER;Public;61 rue des Alouettes;;;44100;NANTES;Nantes;351494.5;6688109.1;EPSG:2154;47.20176308109796;-1.606220188013517;Parfaite;Numéro de rue;101;ECOLE MATERNELLE;1;OUVERT;044;52;17;44109;Loire-Atlantique;Pays de la Loire;Nantes;47.20176308109796, -1.606220188013517;99;SANS OBJET;06;MINISTERE DE L'EDUCATION NATIONALE;1970-01-08
0440719T;Ecole maternelle publique Lucie Aubrac;ECOLE MATERNELLE PUBLIQUE;LUCIE AUBRAC;Public;45 boulevard Jean Moulin;;;44100;NANTES;Nantes;352058.3;6688752.4;EPSG:2154;47.20784040721314;-1.5992799432944385;Parfaite;Numéro de rue;101;ECOLE MATERNELLE;1;OUVERT;044;52;17;44109;Loire-Atlantique;Pays de la Loire;Nantes;47.20784040721314, -1.5992799432944385;99;SANS OBJET;06;MINISTERE DE L'EDUCATION NATIONALE;1970-01-08
0441038P;Ecole élémentaire publique Les Garennes;ECOLE ELEMENTAIRE PUBLIQUE;GARENNES (LES);Public;7 place des Garennes;;;44100;NANTES;Nantes;353554.7;6687976.5;EPSG:2154;47.201649477555506;-1.578950057242011;Parfaite;Numéro de rue;151;ECOLE DE NIVEAU ELEMENTAIRE;1;OUVERT;044;52;17;44109;Loire-Atlantique;Pays de la Loire;Nantes;47.201649477555506, -1.578950057242011;99;SANS OBJET;06;MINISTERE DE L'EDUCATION NATIONALE;1970-10-08
0441420E;Ecole primaire privée Saint Michel;ECOLE PRIMAIRE PRIVEE;ST MICHEL;Privé;15 rue Marie Anne du Boccage;;;44000;NANTES;Nantes;354292.7;6689483.9;EPSG:2154;47.215582123330236;-1.5703696117821315;Parfaite;Numéro de rue;151;ECOLE DE NIVEAU ELEMENTAIRE;1;OUVERT;044;52;17;44109;Loire-Atlantique;Pays de la Loire;Nantes;47.215582123330236, -1.5703696117821315;30;CONTRAT D'ASSOCIATION TOUTES CLASSES;06;MINISTERE DE L'EDUCATION NATIONALE;1971-03-19
0441440B;Ecole primaire privée Marcel Callo;ECOLE PRIMAIRE PRIVEE;MARCEL CALLO;Privé;Rue Marcel Planiol;;;44100;NANTES;Nantes;352243.3;6690000.8;EPSG:2154;47.21915727618246;-1.5977998269395692;Correcte;Rue;151;ECOLE DE NIVEAU ELEMENTAIRE;1;OUVERT;044;52;17;44109;Loire-Atlantique;Pays de la Loire;Nantes;47.21915727618246, -1.5977998269395692;30;CONTRAT D'ASSOCIATION TOUTES CLASSES;06;MINISTERE DE L'EDUCATION NATIONALE;1971-03-19
0441442D;Ecole primaire privée Saint Joseph;ECOLE PRIMAIRE PRIVEE;ST JOSEPH;Privé;63 bis rue d'Allonville;;;44000;NANTES;Nantes;357094.4;6690074.4;EPSG:2154;47.22234264975927;-1.533859597202319;Parfaite;Numéro de rue;151;ECOLE DE NIVEAU ELEMENTAIRE;1;OUVERT;044;52;17;44109;Loire-Atlantique;Pays de la Loire;Nantes;47.22234264975927, -1.533859597202319;30;CONTRAT D'ASSOCIATION TOUTES CLASSES;06;MINISTERE DE L'EDUCATION NATIONALE;1971-03-19
0441468G;Ecole primaire privée Saint Félix;ECOLE PRIMAIRE PRIVEE;ST FELIX;Privé;2 rue Soubzmain;;;44000;NANTES;Nantes;355341.4;6691246.7;EPSG:2154;47.23197093746501;-1.55787995962843;Parfaite;Numéro de rue;151;ECOLE DE NIVEAU ELEMENTAIRE;1;OUVERT;044;52;17;44109;Loire-Atlantique;Pays de la Loire;Nantes;47.23197093746501, -1.55787995962843;30;CONTRAT D'ASSOCIATION TOUTES CLASSES;06;MINISTERE DE L'EDUCATION NATIONALE;1971-03-22
0441490F;Ecole primaire privée Notre-Dame de Bon Port;ECOLE PRIMAIRE PRIVEE;N-D.DE BON PORT;Privé;2 A rue Dobrée;;;44100;NANTES;Nantes;354484.4;6689011.0;EPSG:2154;47.211431670220094;-1.5674796932704689;Parfaite;Numéro de rue;151;ECOLE DE NIVEAU ELEMENTAIRE;1;OUVERT;044;52;17;44109;Loire-Atlantique;Pays de la Loire;Nantes;47.211431670220094, -1.5674796932704689;30;CONTRAT D'ASSOCIATION TOUTES CLASSES;06;MINISTERE DE L'EDUCATION NATIONALE;1971-03-22
0441492H;Ecole primaire privée Sainte Anne;ECOLE PRIMAIRE PRIVEE;STE ANNE;Privé;4 rue Mounet Sully;;;44100;NANTES;Nantes;353531.9;6688144.8;EPSG:2154;47.20315019625277;-1.5793795873771128;Parfaite;Numéro de rue;151;ECOLE DE NIVEAU ELEMENTAIRE;1;OUVERT;044;52;17;44109;Loire-Atlantique;Pays de la Loire;Nantes;47.20315019625277, -1.5793795873771128;30;CONTRAT D'ASSOCIATION TOUTES CLASSES;06;MINISTERE DE L'EDUCATION NATIONALE;1971-03-19
0441524T;Ecole maternelle publique Jean Moulin;ECOLE MATERNELLE PUBLIQUE;JEAN MOULIN;Public;5 rue de Chypre;;;44000;NANTES;Nantes;357867.0;6689273.3;EPSG:2154;47.21554112556364;-1.5230606629651429;Parfaite;Numéro de rue;101;ECOLE MATERNELLE;1;OUVERT;044;52;17;44109;Loire-Atlantique;Pays de la Loire;Nantes;47.21554112556364, -1.5230606629651429;99;SANS OBJET;06;MINISTERE DE L'EDUCATION NATIONALE;1971-06-17
0441665W;Ecole maternelle publique La Bottière;ECOLE MATERNELLE PUBLIQUE;BOTTIERE (LA);Public;14 rue de la Bottière;;;44300;NANTES;Nantes;358053.8;6691697.6;EPSG:2154;47.237426764660235;-1.5224301106302784;Parfaite;Numéro de rue;101;ECOLE MATERNELLE;1;OUVERT;044;52;17;44109;Loire-Atlantique;Pays de la Loire;Nantes;47.237426764660235, -1.5224301106302784;99;SANS OBJET;06;MINISTERE DE L'EDUCATION NATIONALE;1974-02-15
0441666X;Ecole primaire publique Paul Gauguin;ECOLE PRIMAIRE PUBLIQUE;PAUL GAUGUIN;Public;20 rue de la Coulée;;;44300;NANTES;Nantes;354171.7;6694416.8;EPSG:2154;47.259853663985666;-1.5757405508715907;Correcte;Rue;151;ECOLE DE NIVEAU ELEMENTAIRE;1;OUVERT;044;52;17;44109;Loire-Atlantique;Pays de la Loire;Nantes;47.259853663985666, -1.5757405508715907;99;SANS OBJET;06;MINISTERE DE L'EDUCATION NATIONALE;1974-02-15
0441668Z;Ecole maternelle publique Port Boyer;ECOLE MATERNELLE PUBLIQUE;PORT BOYER;Public;53 rue de l'Eraudiere;;;44300;NANTES;Nantes;356637.3;6692061.7;EPSG:2154;47.2399677324195;-1.5413995657798156;Parfaite;Numéro de rue;101;ECOLE MATERNELLE;1;OUVERT;044;52;17;44109;Loire-Atlantique;Pays de la Loire;Nantes;47.2399677324195, -1.5413995657798156;99;SANS OBJET;06;MINISTERE DE L'EDUCATION NATIONALE;1974-02-15
0441820P;Collège Gabriel Guist'hau;COLLEGE;GABRIEL GUIST'HAU;Public;3 rue MARIE ANNE DU BOCCAGE;;34201;44042;NANTES CEDEX 1;Nantes;354540.9;6689515.7;EPSG:2154;47.21599714386803;-1.5671199268937999;Parfaite;Numéro de rue;340;COLLEGE;1;OUVERT;044;52;17;44109;Loire-Atlantique;Pays de la Loire;Nantes;47.21599714386803, -1.5671199268937999;99;SANS OBJET;06;MINISTERE DE L'EDUCATION NATIONALE;1977-03-24
0441961T;Ecole primaire publique Jacques Tati;ECOLE PRIMAIRE PUBLIQUE;JACQUES TATI;Public;3 rue St Jean de Luz;;;44200;NANTES;Nantes;357422.0;6686984.4;EPSG:2154;47.1947391235087;-1.5271977704471384;Parfaite;Numéro de rue;151;ECOLE DE NIVEAU ELEMENTAIRE;1;OUVERT;044;52;17;44109;Loire-Atlantique;Pays de la Loire;Nantes;47.1947391235087, -1.5271977704471384;99;SANS OBJET;06;MINISTERE DE L'EDUCATION NATIONALE;1981-09-01
0442119P;Collège privé de Bretagne;COLLEGE PRIVE;DE BRETAGNE;Privé;15  RUE DU LANDREAU;;;44300;NANTES;Nantes;358164.9;6691163.7;EPSG:2154;47.23268537704002;-1.5205601557879864;Parfaite;Numéro de rue;340;COLLEGE;1;OUVERT;044;52;17;44109;Loire-Atlantique;Pays de la Loire;Nantes;47.23268537704002, -1.5205601557879864;30;CONTRAT D'ASSOCIATION TOUTES CLASSES;06;MINISTERE DE L'EDUCATION NATIONALE;1989-09-01
0442227G;Lycée polyvalent privé Institut de formation aux métiers paramédicaux -Lycée des métiers du bien-être : esthétique,cosmétique,parfumerie et diététique;LYC POLYVAL PRIVE DES METIERS;IFOM;Privé;17 boulevard DES MARTYRS NANTAIS;;;44200;NANTES;Nantes;356077.5;6687976.4;EPSG:2154;47.202960116784816;-1.5456801491580427;Correcte;Numéro de rue;306;LYCEE POLYVALENT;1;OUVERT;044;52;17;44109;Loire-Atlantique;Pays de la Loire;Nantes;47.202960116784816, -1.5456801491580427;31;CONTRAT ASSOCIATION PARTIE DES CLASSES;06;MINISTERE DE L'EDUCATION NATIONALE;1992-09-01
0442358Z;Section d'enseignement professionnel du Lycée polyvalent privé Sacré-Coeur La Salle;SECTION ENSEIGT PROFES.PRIVEE;LPO SACRE COEUR LA SALLE;Privé;3 rue FRANCIS PORTAIS;;;44107;NANTES CEDEX 4;Nantes;351347.6;6688697.2;EPSG:2154;47.20697145965515;-1.6086105205512675;Parfaite;Numéro de rue;334;SECTION D ENSEIGNEMENT PROFESSIONNEL;1;OUVERT;044;52;17;44109;Loire-Atlantique;Pays de la Loire;Nantes;47.20697145965515, -1.6086105205512675;30;CONTRAT D'ASSOCIATION TOUTES CLASSES;06;MINISTERE DE L'EDUCATION NATIONALE;1997-09-01
0442412H;Ecole secondaire professionnelle privée Nantes Académie Coiffure;ECOLE 2D DEGRE PROF.PRIVEE;NANTES ACADEMIE COIFFURE;Privé;6  PLACE MONTAIGNE;;;44000;NANTES;Nantes;355034.5;6689988.5;EPSG:2154;47.220503214584575;-1.560969476034659;Parfaite;Numéro de rue;320;LYCEE PROFESSIONNEL;1;OUVERT;044;52;17;44109;Loire-Atlantique;Pays de la Loire;Nantes;47.220503214584575, -1.560969476034659;10;HORS CONTRAT;06;MINISTERE DE L'EDUCATION NATIONALE;2000-04-01
0442699V;Lycée général privé Externat Chavagnes;LYCEE GENERAL PRIVE;EXTERNAT CHAVAGNES;Privé;31 avenue Camus;;;44042;NANTES CEDEX 1;Nantes;354111.5;6689850.1;EPSG:2154;47.21877899279413;-1.5730398526932328;Parfaite;Numéro de rue;302;LYCEE D ENSEIGNEMENT GENERAL;1;OUVERT;044;52;17;44109;Loire-Atlantique;Pays de la Loire;Nantes;47.21877899279413, -1.5730398526932328;30;CONTRAT D'ASSOCIATION TOUTES CLASSES;06;MINISTERE DE L'EDUCATION NATIONALE;2011-09-01
0442786P;Ecole primaire privée Cours Charlier;ECOLE PRIMAIRE PRIVEE;COURS CHARLIER;Privé;26 bis rue Des Hauts Pavés;;;44000;NANTES;Nantes;354845.0;6690329.5;EPSG:2154;47.22346948966876;-1.5637296671837198;Parfaite;Numéro de rue;151;ECOLE DE NIVEAU ELEMENTAIRE;1;OUVERT;044;52;17;44109;Loire-Atlantique;Pays de la Loire;Nantes;47.22346948966876, -1.5637296671837198;10;HORS CONTRAT;06;MINISTERE DE L'EDUCATION NATIONALE;2015-01-19
0442897K;Ecole primaire publique Leloup-Bouhier;ECOLE PRIMAIRE PUBLIQUE;LELOUP-BOUHIER;Public;11 boulevard de launay;;;44100;NANTES;Nantes;354076.5;6688900.6;EPSG:2154;47.21022701559704;-1.5727753901141799;Parfaite;Numéro de rue;151;ECOLE DE NIVEAU ELEMENTAIRE;1;OUVERT;044;52;17;44109;Loire-Atlantique;Pays de la Loire;Nantes;47.21022701559704, -1.5727753901141799;99;SANS OBJET;06;MINISTERE DE L'EDUCATION NATIONALE;2020-09-01
0440023L;Collège Chantenay;COLLEGE;CHANTENAY;Public;62 rue AMIRAL DU CHAFFAULT;;;44107;NANTES CEDEX 4;Nantes;353201.7;6688622.9;EPSG:2154;47.207274769794125;-1.5841005962595762;Parfaite;Numéro de rue;340;COLLEGE;1;OUVERT;044;52;17;44109;Loire-Atlantique;Pays de la Loire;Nantes;47.207274769794125, -1.5841005962595762;99;SANS OBJET;06;MINISTERE DE L'EDUCATION NATIONALE;1965-05-01
0440030U;Lycée Polyvalent Gaspard Monge - La Chauvinière - Lycée des métiers;LPO LYCEE DES METIERS;GASPARD MONGE - LA CHAUVINIERE;Public;2  RUE DE LA FANTAISIE;;62223;44322;NANTES CEDEX 3;Nantes;354343.8;6693766.2;EPSG:2154;47.2540961307008;-1.5729705683673285;Parfaite;Numéro de rue;306;LYCEE POLYVALENT;1;OUVERT;044;52;17;44109;Loire-Atlantique;Pays de la Loire;Nantes;47.2540961307008, -1.5729705683673285;99;SANS OBJET;06;MINISTERE DE L'EDUCATION NATIONALE;1965-05-01
0440049P;Collège Aristide Briand;COLLEGE;ARISTIDE BRIAND;Public;19 rue LOUIS BLANC;;16211;44262;NANTES CEDEX 2;Nantes;355457.8;6688340.5;EPSG:2154;47.205911284648984;-1.5541299357865803;Parfaite;Numéro de rue;340;COLLEGE;1;OUVERT;044;52;17;44109;Loire-Atlantique;Pays de la Loire;Nantes;47.205911284648984, -1.5541299357865803;99;SANS OBJET;06;MINISTERE DE L'EDUCATION NATIONALE;1965-05-01
0440161L;Lycée général privé Saint Joseph du Loquidy-La Salle;LYCEE GENERAL PRIVE;ST JOSEPH DU LOQUIDY LA SALLE;Privé;73 boulevard Michelet;;;44322;NANTES CEDEX 3;Nantes;355376.7;6691766.2;EPSG:2154;47.236658351701216;-1.5578102838401713;Parfaite;Numéro de rue;302;LYCEE D ENSEIGNEMENT GENERAL;1;OUVERT;044;52;17;44109;Loire-Atlantique;Pays de la Loire;Nantes;47.236658351701216, -1.5578102838401713;30;CONTRAT D'ASSOCIATION TOUTES CLASSES;06;MINISTERE DE L'EDUCATION NATIONALE;1967-02-01
0440172Y;Lycée général privé La Perverie Sacré-Coeur;LYCEE GENERAL PRIVE;LA PERVERIE SACRE COEUR;Privé;63  RUE DE LA PERVERIE;;;44322;NANTES CEDEX 3;Nantes;355082.2;6692546.1;EPSG:2154;47.24351476296307;-1.5622918229573297;Correcte;Numéro de rue;302;LYCEE D ENSEIGNEMENT GENERAL;1;OUVERT;044;52;17;44109;Loire-Atlantique;Pays de la Loire;Nantes;47.24351476296307, -1.5622918229573297;30;CONTRAT D'ASSOCIATION TOUTES CLASSES;06;MINISTERE DE L'EDUCATION NATIONALE;1967-02-01
0440207L;Collège privé Saint Raphaël;COLLEGE PRIVE;ST RAPHAEL;Privé;136  RUE DU GENERAL BUAT;;;44000;NANTES;Nantes;356481.9;6690719.0;EPSG:2154;47.22781945429561;-1.5424299143502962;Parfaite;Numéro de rue;340;COLLEGE;1;OUVERT;044;52;17;44109;Loire-Atlantique;Pays de la Loire;Nantes;47.22781945429561, -1.5424299143502962;30;CONTRAT D'ASSOCIATION TOUTES CLASSES;06;MINISTERE DE L'EDUCATION NATIONALE;1967-03-07
0440210P;Collège privé Sainte Madeleine-La Joliverie;COLLEGE PRIVE;STE MADELEINE- LA JOLIVERIE;Privé;10 quai HOCHE;;96522;44265;NANTES CEDEX 2;Nantes;355641.1;6688416.6;EPSG:2154;47.20669035160314;-1.5517703764870374;Parfaite;Numéro de rue;340;COLLEGE;1;OUVERT;044;52;17;44109;Loire-Atlantique;Pays de la Loire;Nantes;47.20669035160314, -1.5517703764870374;30;CONTRAT D'ASSOCIATION TOUTES CLASSES;06;MINISTERE DE L'EDUCATION NATIONALE;1967-03-07
0440211R;Collège privé Théophane Vénard;COLLEGE PRIVE;ST THEOPHANE VENARD;Privé;55 rue DU CHANOINE LAROSE;;;44107;NANTES CEDEX 4;Nantes;353743.9;6691365.9;EPSG:2154;47.23221064996807;-1.5790499201320443;Parfaite;Numéro de rue;340;COLLEGE;1;OUVERT;044;52;17;44109;Loire-Atlantique;Pays de la Loire;Nantes;47.23221064996807, -1.5790499201320443;30;CONTRAT D'ASSOCIATION TOUTES CLASSES;06;MINISTERE DE L'EDUCATION NATIONALE;1967-03-07
0440329U;Etablissement régional d'enseignement adapté la Rivière;ETAB.REGIONAL ENSEIGNT ADAPTE;LA RIVIERE;Public;10 boulevard Albert Einstein;;22353;44323;NANTES CEDEX 3;Nantes;355391.2;6694375.9;EPSG:2154;47.2601207916545;-1.559609735456823;Correcte;Numéro de rue;370;ETAB REGIONAL/LYCEE ENSEIGNEMENT ADAPTE;1;OUVERT;044;52;17;44109;Loire-Atlantique;Pays de la Loire;Nantes;47.2601207916545, -1.559609735456823;99;SANS OBJET;06;MINISTERE DE L'EDUCATION NATIONALE;1969-07-03
0440432F;Ecole secondaire professionnelle privée Anjorrant;ECOLE 2D DEGRE PROF.PRIVEE;ANJORRANT;Privé;80 rue DU GENERAL BUAT;;80927;44009;NANTES CEDEX 1;Nantes;356726.6;6691007.7;EPSG:2154;47.230540840390944;-1.5394205320219794;Parfaite;Numéro de rue;320;LYCEE PROFESSIONNEL;1;OUVERT;044;52;17;44109;Loire-Atlantique;Pays de la Loire;Nantes;47.230540840390944, -1.5394205320219794;10;HORS CONTRAT;06;MINISTERE DE L'EDUCATION NATIONALE;1970-02-03
0440613C;Ecole primaire publique Ampère;ECOLE PRIMAIRE PUBLIQUE;AMPERE;Public;17 rue Ampère;;;44100;NANTES;Nantes;353182.1;6689093.2;EPSG:2154;47.211491378502664;-1.5847196363270009;Parfaite;Numéro de rue;151;ECOLE DE NIVEAU ELEMENTAIRE;1;OUVERT;044;52;17;44109;Loire-Atlantique;Pays de la Loire;Nantes;47.211491378502664, -1.5847196363270009;99;SANS OBJET;06;MINISTERE DE L'EDUCATION NATIONALE;1970-01-07
0440620K;Ecole élémentaire publique Jacques Prévert;ECOLE ELEMENTAIRE PUBLIQUE;JACQUES PREVERT;Public;34 rue du Breil;;;44100;NANTES;Nantes;353372.9;6691098.8;EPSG:2154;47.2296164118259;-1.5837403699098072;Parfaite;Numéro de rue;151;ECOLE DE NIVEAU ELEMENTAIRE;1;OUVERT;044;52;17;44109;Loire-Atlantique;Pays de la Loire;Nantes;47.2296164118259, -1.5837403699098072;99;SANS OBJET;06;MINISTERE DE L'EDUCATION NATIONALE;1970-01-07
0440623N;Ecole primaire publique Grand Carcouët;ECOLE PRIMAIRE PUBLIQUE;GRAND CARCOUET;Public;1 rue Louis Brisset;;;44100;NANTES;Nantes;352625.4;6690936.3;EPSG:2154;47.22776511057874;-1.5934780605972827;Parfaite;Numéro de rue;151;ECOLE DE NIVEAU ELEMENTAIRE;1;OUVERT;044;52;17;44109;Loire-Atlantique;Pays de la Loire;Nantes;47.22776511057874, -1.5934780605972827;99;SANS OBJET;06;MINISTERE DE L'EDUCATION NATIONALE;1970-01-07
0440624P;Ecole élémentaire publique Champenois;ECOLE ELEMENTAIRE PUBLIQUE;CHAMPENOIS;Public;8 rue Champenois;;;44000;NANTES;Nantes;357687.4;6690410.0;EPSG:2154;47.225665082819944;-1.5262902697603176;Parfaite;Numéro de rue;151;ECOLE DE NIVEAU ELEMENTAIRE;1;OUVERT;044;52;17;44109;Loire-Atlantique;Pays de la Loire;Nantes;47.225665082819944, -1.5262902697603176;99;SANS OBJET;06;MINISTERE DE L'EDUCATION NATIONALE;1970-01-07
0440632Y;Ecole élémentaire publique Le Coudray;ECOLE ELEMENTAIRE PUBLIQUE;COUDRAY (LE);Public;20 rue du Coudray;;;44000;NANTES;Nantes;356455.1;6691293.2;EPSG:2154;47.232966350854895;-1.543219897058645;Parfaite;Numéro de rue;151;ECOLE DE NIVEAU ELEMENTAIRE;1;OUVERT;044;52;17;44109;Loire-Atlantique;Pays de la Loire;Nantes;47.232966350854895, -1.543219897058645;99;SANS OBJET;06;MINISTERE DE L'EDUCATION NATIONALE;1970-01-07
0440633Z;Ecole élémentaire publique Les Châtaigniers;ECOLE ELEMENTAIRE PUBLIQUE;CHATAIGNIERS (LES);Public;164 rue du Corps de Garde;;;44100;NANTES;Nantes;351925.0;6690092.8;EPSG:2154;47.21981728091829;-1.6020694630595043;Parfaite;Numéro de rue;151;ECOLE DE NIVEAU ELEMENTAIRE;1;OUVERT;044;52;17;44109;Loire-Atlantique;Pays de la Loire;Nantes;47.21981728091829, -1.6020694630595043;99;SANS OBJET;06;MINISTERE DE L'EDUCATION NATIONALE;1970-01-07
0440636C;Ecole élémentaire publique Dervallières Chézine;ECOLE ELEMENTAIRE PUBLIQUE;DERVALLIERES CHEZINE;Public;1 rue Auguste Lepère;;;44100;NANTES;Nantes;352265.0;6690867.9;EPSG:2154;47.22696163571036;-1.5981804071889079;Correcte;Numéro de rue;151;ECOLE DE NIVEAU ELEMENTAIRE;1;OUVERT;044;52;17;44109;Loire-Atlantique;Pays de la Loire;Nantes;47.22696163571036, -1.5981804071889079;99;SANS OBJET;06;MINISTERE DE L'EDUCATION NATIONALE;1970-01-07
0440639F;Ecole élémentaire publique Maurice Macé;ECOLE ELEMENTAIRE PUBLIQUE;MAURICE MACE;Public;14 rue du Pontereau;;;44300;NANTES;Nantes;359428.9;6691481.2;EPSG:2154;47.23618897073644;-1.5041200708170321;Parfaite;Numéro de rue;151;ECOLE DE NIVEAU ELEMENTAIRE;1;OUVERT;044;52;17;44109;Loire-Atlantique;Pays de la Loire;Nantes;47.23618897073644, -1.5041200708170321;99;SANS OBJET;06;MINISTERE DE L'EDUCATION NATIONALE;1970-01-07
0440645M;Ecole élémentaire publique George Sand;ECOLE ELEMENTAIRE PUBLIQUE;GEORGE SAND;Public;83 rue des Renards;;;44300;NANTES;Nantes;354639.7;6694296.6;EPSG:2154;47.25901721538321;-1.5694702190280125;Parfaite;Numéro de rue;151;ECOLE DE NIVEAU ELEMENTAIRE;1;OUVERT;044;52;17;44109;Loire-Atlantique;Pays de la Loire;Nantes;47.25901721538321, -1.5694702190280125;99;SANS OBJET;06;MINISTERE DE L'EDUCATION NATIONALE;1970-01-07
0440647P;Ecole primaire publique Alphonse Braud;ECOLE PRIMAIRE PUBLIQUE;ALPHONSE BRAUD;Public;34 rue Gutenberg;;;44100;NANTES;Nantes;352988.2;6688027.6;EPSG:2154;47.201812920197064;-1.5864598289770289;Parfaite;Numéro de rue;151;ECOLE DE NIVEAU ELEMENTAIRE;1;OUVERT;044;52;17;44109;Loire-Atlantique;Pays de la Loire;Nantes;47.201812920197064, -1.5864598289770289;99;SANS OBJET;06;MINISTERE DE L'EDUCATION NATIONALE;1970-01-07
0440667L;Ecole élémentaire publique Emile Péhant;ECOLE ELEMENTAIRE PUBLIQUE;EMILE PEHANT;Public;24 rue Emile Péhant;;;44000;NANTES;Nantes;355929.5;6689064.9;EPSG:2154;47.21266666064821;-1.5484597757866623;Parfaite;Numéro de rue;151;ECOLE DE NIVEAU ELEMENTAIRE;1;OUVERT;044;52;17;44109;Loire-Atlantique;Pays de la Loire;Nantes;47.21266666064821, -1.5484597757866623;99;SANS OBJET;06;MINISTERE DE L'EDUCATION NATIONALE;1970-01-08
0440690L;Ecole maternelle publique Les Agenêts;ECOLE MATERNELLE PUBLIQUE;AGENETS (LES);Public;31 rue des Agenets;;;44000;NANTES;Nantes;357429.8;6690701.8;EPSG:2154;47.228154826728485;-1.5299100714555511;Parfaite;Numéro de rue;101;ECOLE MATERNELLE;1;OUVERT;044;52;17;44109;Loire-Atlantique;Pays de la Loire;Nantes;47.228154826728485, -1.5299100714555511;99;SANS OBJET;06;MINISTERE DE L'EDUCATION NATIONALE;1970-01-08
0440701Y;Ecole maternelle publique La Contrie;ECOLE MATERNELLE PUBLIQUE;CONTRIE (LA);Public;40 rue Jean Bouin;;;44100;NANTES;Nantes;352001.6;6689587.0;EPSG:2154;47.21531160906286;-1.6006697923250852;Parfaite;Numéro de rue;101;ECOLE MATERNELLE;1;OUVERT;044;52;17;44109;Loire-Atlantique;Pays de la Loire;Nantes;47.21531160906286, -1.6006697923250852;99;SANS OBJET;06;MINISTERE DE L'EDUCATION NATIONALE;1970-01-08
0440716P;Ecole maternelle publique Molière;ECOLE MATERNELLE PUBLIQUE;MOLIERE;Public;2 rue du Cheval Blanc;;;44000;NANTES;Nantes;355388.9;6689614.7;EPSG:2154;47.2173277025322;-1.5560093255184138;Parfaite;Numéro de rue;101;ECOLE MATERNELLE;1;OUVERT;044;52;17;44109;Loire-Atlantique;Pays de la Loire;Nantes;47.2173277025322, -1.5560093255184138;99;SANS OBJET;06;MINISTERE DE L'EDUCATION NATIONALE;1970-01-08
0440721V;Ecole maternelle publique Gustave Roch;ECOLE MATERNELLE PUBLIQUE;GUSTAVE ROCH;Public;24 boulevard Gustave Roch;;;44200;NANTES;Nantes;355719.1;6688203.3;EPSG:2154;47.20481370774089;-1.5505793438662472;Parfaite;Numéro de rue;101;ECOLE MATERNELLE;1;OUVERT;044;52;17;44109;Loire-Atlantique;Pays de la Loire;Nantes;47.20481370774089, -1.5505793438662472;99;SANS OBJET;06;MINISTERE DE L'EDUCATION NATIONALE;1970-01-08
0440726A;Ecole maternelle publique Jean Zay 2;ECOLE MATERNELLE PUBLIQUE;JEAN ZAY GPE 2;Public;19 rue Yves Kartel;;;44100;NANTES;Nantes;351402.2;6688877.9;EPSG:2154;47.208624154288046;-1.608029667359223;Parfaite;Numéro de rue;101;ECOLE MATERNELLE;1;OUVERT;044;52;17;44109;Loire-Atlantique;Pays de la Loire;Nantes;47.208624154288046, -1.608029667359223;99;SANS OBJET;06;MINISTERE DE L'EDUCATION NATIONALE;1970-01-09
0440997V;Ecole élémentaire publique Les Plantes;ECOLE ELEMENTAIRE PUBLIQUE;PLANTES (LES);Public;19 avenue des Plantes;;;44100;NANTES;Nantes;353410.1;6691634.1;EPSG:2154;47.234446840137984;-1.583659995894648;Parfaite;Numéro de rue;151;ECOLE DE NIVEAU ELEMENTAIRE;1;OUVERT;044;52;17;44109;Loire-Atlantique;Pays de la Loire;Nantes;47.234446840137984, -1.583659995894648;99;SANS OBJET;06;MINISTERE DE L'EDUCATION NATIONALE;1970-06-02
0441427M;Ecole primaire privée Saint Martin-Immaculée;ECOLE PRIMAIRE PRIVEE;ST MARTIN-IMMACULEE;Privé;4 rue Jean-Baptiste Legeay;;;44100;NANTES;Nantes;352368.6;6687869.7;EPSG:2154;47.20006968618611;-1.594509340304784;Parfaite;Numéro de rue;151;ECOLE DE NIVEAU ELEMENTAIRE;1;OUVERT;044;52;17;44109;Loire-Atlantique;Pays de la Loire;Nantes;47.20006968618611, -1.594509340304784;30;CONTRAT D'ASSOCIATION TOUTES CLASSES;06;MINISTERE DE L'EDUCATION NATIONALE;1971-03-19
0441428N;Ecole primaire privée Saint Jacques de Compostelle;ECOLE PRIMAIRE PRIVEE;ST JACQUES DE COMPOSTELLE;Privé;16 rue du Frère Louis;;;44200;NANTES;Nantes;356527.3;6687082.3;EPSG:2154;47.195156882398514;-1.539069601263059;Parfaite;Numéro de rue;151;ECOLE DE NIVEAU ELEMENTAIRE;1;OUVERT;044;52;17;44109;Loire-Atlantique;Pays de la Loire;Nantes;47.195156882398514, -1.539069601263059;30;CONTRAT D'ASSOCIATION TOUTES CLASSES;06;MINISTERE DE L'EDUCATION NATIONALE;1971-03-19
0441463B;Ecole primaire privée Blanche de Castille;ECOLE PRIMAIRE PRIVEE;BLANCHE DE CASTILLE;Privé;45 boulevard Jules Verne;;61902;44319;NANTES CEDEX 3;Nantes;357215.3;6691703.5;EPSG:2154;47.237047162867285;-1.5334998940708784;Parfaite;Numéro de rue;151;ECOLE DE NIVEAU ELEMENTAIRE;1;OUVERT;044;52;17;44109;Loire-Atlantique;Pays de la Loire;Nantes;47.237047162867285, -1.5334998940708784;30;CONTRAT D'ASSOCIATION TOUTES CLASSES;06;MINISTERE DE L'EDUCATION NATIONALE;1971-03-22
0441465D;Ecole primaire privée La Perverie;ECOLE PRIMAIRE PRIVEE;LA PERVERIE;Privé;63 rue de la Perverie;;72215;44322;NANTES CEDEX 3;Nantes;355082.2;6692546.1;EPSG:2154;47.24351476296307;-1.5622918229573297;Correcte;Numéro de rue;151;ECOLE DE NIVEAU ELEMENTAIRE;1;OUVERT;044;52;17;44109;Loire-Atlantique;Pays de la Loire;Nantes;47.24351476296307, -1.5622918229573297;30;CONTRAT D'ASSOCIATION TOUTES CLASSES;06;MINISTERE DE L'EDUCATION NATIONALE;1971-03-19
0441497N;Ecole élémentaire privée Don Bosco;ECOLE ELEMENTAIRE PRIVEE;DON BOSCO;Privé;9 rue du Moulin des Carmes;;;44300;NANTES;Nantes;357148.4;6691844.7;EPSG:2154;47.23828167512901;-1.5344898581390571;Parfaite;Numéro de rue;151;ECOLE DE NIVEAU ELEMENTAIRE;1;OUVERT;044;52;17;44109;Loire-Atlantique;Pays de la Loire;Nantes;47.23828167512901, -1.5344898581390571;30;CONTRAT D'ASSOCIATION TOUTES CLASSES;06;MINISTERE DE L'EDUCATION NATIONALE;1971-03-19
0441520N;Ecole élémentaire publique La Bottière;ECOLE ELEMENTAIRE PUBLIQUE;BOTTIERE (LA);Public;10 rue de la Bottiere;;;44300;NANTES;Nantes;358047.1;6691685.6;EPSG:2154;47.23731545756393;-1.522509448370174;Parfaite;Numéro de rue;151;ECOLE DE NIVEAU ELEMENTAIRE;1;OUVERT;044;52;17;44109;Loire-Atlantique;Pays de la Loire;Nantes;47.23731545756393, -1.522509448370174;99;SANS OBJET;06;MINISTERE DE L'EDUCATION NATIONALE;1971-06-16
0441552Y;Lycée Polyvalent les Bourdonnières;LYCEE POLYVALENT;LES BOURDONNIERES;Public;Rue DE LA PERRIERE;;;44200;NANTES;Nantes;358102.1;6685991.5;EPSG:2154;47.18616538280837;-1.5174799567161925;Correcte;Rue;306;LYCEE POLYVALENT;1;OUVERT;044;52;17;44109;Loire-Atlantique;Pays de la Loire;Nantes;47.18616538280837, -1.5174799567161925;99;SANS OBJET;06;MINISTERE DE L'EDUCATION NATIONALE;1972-01-25
0441600A;Ecole maternelle publique Stalingrad;ECOLE MATERNELLE PUBLIQUE;STALINGRAD;Public;6 allée du Bourg Fumé;;;44000;NANTES;Nantes;356812.8;6689792.3;EPSG:2154;47.219661641625166;-1.5373606010851688;Parfaite;Numéro de rue;101;ECOLE MATERNELLE;1;OUVERT;044;52;17;44109;Loire-Atlantique;Pays de la Loire;Nantes;47.219661641625166, -1.5373606010851688;99;SANS OBJET;06;MINISTERE DE L'EDUCATION NATIONALE;1972-09-29
0441609K;Section d'enseignement général et professionnel adapté du Collège La Durantière;SEGPA;CLG LA DURANTIERE;Public;17 rue Baptiste Marcet;;;44100;NANTES;Nantes;351748.4;6689534.8;EPSG:2154;47.21470968152792;-1.6039694215006646;Parfaite;Numéro de rue;390;SECTION ENSEIGNT GEN. ET PROF. ADAPTE;1;OUVERT;044;52;17;44109;Loire-Atlantique;Pays de la Loire;Nantes;47.21470968152792, -1.6039694215006646;99;SANS OBJET;06;MINISTERE DE L'EDUCATION NATIONALE;1973-03-26
0441634M;Ecole élémentaire publique Louis Pergaud;ECOLE ELEMENTAIRE PUBLIQUE;LOUIS PERGAUD;Public;6 rue Louis Pergaud;;;44300;NANTES;Nantes;358482.0;6695149.7;EPSG:2154;47.26867420105138;-1.5193895383035185;Correcte;Rue;151;ECOLE DE NIVEAU ELEMENTAIRE;1;OUVERT;044;52;17;44109;Loire-Atlantique;Pays de la Loire;Nantes;47.26867420105138, -1.5193895383035185;99;SANS OBJET;06;MINISTERE DE L'EDUCATION NATIONALE;1973-06-12
0441694C;Ecole élémentaire publique François Dallet;ECOLE ELEMENTAIRE PUBLIQUE;FRANCOIS DALLET;Public;150 boulevard des Poilus;;;44300;NANTES;Nantes;357192.4;6691344.4;EPSG:2154;47.23380781424526;-1.533529718674513;Parfaite;Numéro de rue;151;ECOLE DE NIVEAU ELEMENTAIRE;1;OUVERT;044;52;17;44109;Loire-Atlantique;Pays de la Loire;Nantes;47.23380781424526, -1.533529718674513;99;SANS OBJET;06;MINISTERE DE L'EDUCATION NATIONALE;1975-05-05
0441738A;Ecole maternelle publique La Beaujoire;ECOLE MATERNELLE PUBLIQUE;BEAUJOIRE (LA);Public;66 boulevard Professeur R. Auvigne;;;44300;NANTES;Nantes;358478.3;6693703.5;EPSG:2154;47.25567414065874;-1.5183444909983865;Correcte;Rue;101;ECOLE MATERNELLE;1;OUVERT;044;52;17;44109;Loire-Atlantique;Pays de la Loire;Nantes;47.25567414065874, -1.5183444909983865;99;SANS OBJET;06;MINISTERE DE L'EDUCATION NATIONALE;1976-04-23
0441959R;Ecole maternelle publique La Barberie;ECOLE MATERNELLE PUBLIQUE;BARBERIE (LA);Public;25 avenue de Tahiti;;;44300;NANTES;Nantes;354411.2;6692653.6;EPSG:2154;47.24413175542496;-1.5712296922458675;Parfaite;Numéro de rue;101;ECOLE MATERNELLE;1;OUVERT;044;52;17;44109;Loire-Atlantique;Pays de la Loire;Nantes;47.24413175542496, -1.5712296922458675;99;SANS OBJET;06;MINISTERE DE L'EDUCATION NATIONALE;1981-09-01
0442015B;Ecole maternelle publique Louis Pergaud;ECOLE MATERNELLE PUBLIQUE;LOUIS PERGAUD;Public;4 rue Louis Pergaud;;;44300;NANTES;Nantes;358482.0;6695149.7;EPSG:2154;47.26867420105138;-1.5193895383035185;Correcte;Rue;101;ECOLE MATERNELLE;1;OUVERT;044;52;17;44109;Loire-Atlantique;Pays de la Loire;Nantes;47.26867420105138, -1.5193895383035185;99;SANS OBJET;06;MINISTERE DE L'EDUCATION NATIONALE;1983-09-01
0442036Z;Ecole élémentaire publique Mulotière;ECOLE ELEMENTAIRE PUBLIQUE;MULOTIERE;Public;18 rue Pierre Yvernogeau;;;44300;NANTES;Nantes;354512.7;6692405.6;EPSG:2154;47.24195570862455;-1.5697004807095505;Parfaite;Numéro de rue;151;ECOLE DE NIVEAU ELEMENTAIRE;1;OUVERT;044;52;17;44109;Loire-Atlantique;Pays de la Loire;Nantes;47.24195570862455, -1.5697004807095505;99;SANS OBJET;06;MINISTERE DE L'EDUCATION NATIONALE;1985-09-01
0442037A;Ecole maternelle publique Pauline Kergomard;ECOLE MATERNELLE PUBLIQUE;PAULINE KERGOMARD;Public;4 rue Pierre Etienne Flandin;;;44200;NANTES;Nantes;356583.7;6687957.1;EPSG:2154;47.20304866009342;-1.5389897127968293;Parfaite;Numéro de rue;101;ECOLE MATERNELLE;1;OUVERT;044;52;17;44109;Loire-Atlantique;Pays de la Loire;Nantes;47.20304866009342, -1.5389897127968293;99;SANS OBJET;06;MINISTERE DE L'EDUCATION NATIONALE;1985-09-01
0442730D;Ecole primaire publique Aimé Césaire;ECOLE PRIMAIRE PUBLIQUE;AIME CESAIRE;Public;9 esplanade Edouard Glissant;;;44200;NANTES;Nantes;354556.4;6688263.9;EPSG:2154;47.20475444359435;-1.5659595768087584;Parfaite;Numéro de rue;151;ECOLE DE NIVEAU ELEMENTAIRE;1;OUVERT;044;52;17;44109;Loire-Atlantique;Pays de la Loire;Nantes;47.20475444359435, -1.5659595768087584;99;SANS OBJET;06;MINISTERE DE L'EDUCATION NATIONALE;2012-09-01
0442765S;Lycée polyvalent Nelson Mandela;LYCEE POLYVALENT;NELSON MANDELA;Public;10 rue PIERRE VIDAL-NAQUET;;56509;44265;NANTES CEDEX 2;Nantes;357077.2;6688523.4;EPSG:2154;47.208393577218665;-1.5329105760992363;Parfaite;Numéro de rue;306;LYCEE POLYVALENT;1;OUVERT;044;52;17;44109;Loire-Atlantique;Pays de la Loire;Nantes;47.208393577218665, -1.5329105760992363;99;SANS OBJET;06;MINISTERE DE L'EDUCATION NATIONALE;2014-09-01
0442774B;Lycée général et technologique privé Saint-Félix - La Salle - Lycée des métiers;LYC GEN TECH PRIVE DES METIERS;SAINT-FELIX - LA SALLE;Privé;27 rue DU BALLET;;60105;44001;NANTES CEDEX 1;Nantes;355146.4;6691228.8;EPSG:2154;47.231708754423416;-1.5604393192938208;Correcte;Numéro de rue;300;LYCEE ENSEIGNT GENERAL ET TECHNOLOGIQUE;1;OUVERT;044;52;17;44109;Loire-Atlantique;Pays de la Loire;Nantes;47.231708754423416, -1.5604393192938208;30;CONTRAT D'ASSOCIATION TOUTES CLASSES;06;MINISTERE DE L'EDUCATION NATIONALE;2014-09-01
0442871G;Collège privé Al Bader;ECOLE SECONDAIRE PRIVEE;AL BADER;Privé;136 boulevard de Seattle;;;44000;NANTES;Nantes;358386.3;6689723.5;EPSG:2154;47.21985495746551;-1.5165504565487438;Correcte;Rue;340;COLLEGE;1;OUVERT;044;52;17;44109;Loire-Atlantique;Pays de la Loire;Nantes;47.21985495746551, -1.5165504565487438;10;HORS CONTRAT;06;MINISTERE DE L'EDUCATION NATIONALE;2018-04-20
0442875L;Ecole primaire privée Les Petons dans l'herbe;ECOLE PRIMAIRE PRIVEE;LES PETONS DANS L'HERBE;Privé;8 bd Einstein;;;44000;NANTES;Nantes;355541.9;6694519.5;EPSG:2154;47.26148968357041;-1.5577297579243004;Parfaite;Numéro de rue;151;ECOLE DE NIVEAU ELEMENTAIRE;1;OUVERT;044;52;17;44109;Loire-Atlantique;Pays de la Loire;Nantes;47.26148968357041, -1.5577297579243004;10;HORS CONTRAT;06;MINISTERE DE L'EDUCATION NATIONALE;2018-09-01
0442999W;Ecole primaire privée Maison des enfants de Monselet;ECOLE PRIMAIRE PRIVEE;MAISON DES ENFANTS DE MONSELET;Privé;2 rue Paul Painlevé;;;44000;NANTES;Nantes;;;;;;;;151;ECOLE DE NIVEAU ELEMENTAIRE;1;OUVERT;044;52;17;44109;Loire-Atlantique;Pays de la Loire;Nantes;;10;HORS CONTRAT;06;MINISTERE DE L'EDUCATION NATIONALE;2022-10-28
0440028S;Collège La Colinière;COLLEGE;LA COLINIERE;Public;129 rue DU LANDREAU;;81904;44319;NANTES CEDEX 3;Nantes;358848.3;6691531.5;EPSG:2154;47.23634282190417;-1.511819901828716;Parfaite;Numéro de rue;340;COLLEGE;1;OUVERT;044;52;17;44109;Loire-Atlantique;Pays de la Loire;Nantes;47.23634282190417, -1.511819901828716;99;SANS OBJET;06;MINISTERE DE L'EDUCATION NATIONALE;1965-05-01
0440032W;Section d'enseignement professionnel Gaspard Monge La Chauvinière;SECTION ENSEIGNT PROFESSIONNEL;LPO GASPARD MONGE LA CHAUVINERE;Public;2 rue DE LA FANTAISIE;;62223;44322;NANTES CEDEX 3;Nantes;354434.4;6693576.9;EPSG:2154;47.25244200318605;-1.571629789761308;Parfaite;Numéro de rue;334;SECTION D ENSEIGNEMENT PROFESSIONNEL;1;OUVERT;044;52;17;44109;Loire-Atlantique;Pays de la Loire;Nantes;47.25244200318605, -1.571629789761308;99;SANS OBJET;06;MINISTERE DE L'EDUCATION NATIONALE;1965-05-01
0440033X;Lycée professionnel François Arago - Lycée des métiers du bois, de la métallerie, de la maintenance et du numérique;LP LYCEE DES METIERS;FRANCOIS ARAGO;Public;23 rue DU RECTEUR SCHMITT;;82216;44001;NANTES CEDEX 1;Nantes;355832.4;6693253.8;EPSG:2154;47.25026488875537;-1.5529299333465516;Parfaite;Numéro de rue;320;LYCEE PROFESSIONNEL;1;OUVERT;044;52;17;44109;Loire-Atlantique;Pays de la Loire;Nantes;47.25026488875537, -1.5529299333465516;99;SANS OBJET;06;MINISTERE DE L'EDUCATION NATIONALE;1965-05-01
0440034Y;Lycée professionnel Michelet - Lycée du bâtiment et des travaux publics;LYCEE PROFESSIONNEL;MICHELET;Public;41 boulevard Michelet;;22201;44322;NANTES CEDEX 3;Nantes;355316.8;6691607.7;EPSG:2154;47.23520269979235;-1.5584798506382294;Parfaite;Numéro de rue;320;LYCEE PROFESSIONNEL;1;OUVERT;044;52;17;44109;Loire-Atlantique;Pays de la Loire;Nantes;47.23520269979235, -1.5584798506382294;99;SANS OBJET;06;MINISTERE DE L'EDUCATION NATIONALE;1965-05-01
0440255N;Lycée professionnel privé Encia - Lycée des métiers du commerce et de la vente;LYCEE PROF PRIVE DES METIERS;ENCIA;Privé;6  RUE CREBILLON;;20306;44003;NANTES CEDEX 1;Nantes;355091.8;6689269.5;EPSG:2154;47.214070843017566;-1.5596652388255117;Parfaite;Numéro de rue;320;LYCEE PROFESSIONNEL;1;OUVERT;044;52;17;44109;Loire-Atlantique;Pays de la Loire;Nantes;47.214070843017566, -1.5596652388255117;30;CONTRAT D'ASSOCIATION TOUTES CLASSES;06;MINISTERE DE L'EDUCATION NATIONALE;1967-04-10
0440626S;Ecole élémentaire publique La Chauvinière;ECOLE ELEMENTAIRE PUBLIQUE;CHAUVINIERE (LA);Public;32 boulevard de la Chauvinière;;;44300;NANTES;Nantes;354207.3;6693606.9;EPSG:2154;47.252593286665835;-1.5746504408418156;Correcte;Numéro de rue;151;ECOLE DE NIVEAU ELEMENTAIRE;1;OUVERT;044;52;17;44109;Loire-Atlantique;Pays de la Loire;Nantes;47.252593286665835, -1.5746504408418156;99;SANS OBJET;06;MINISTERE DE L'EDUCATION NATIONALE;1970-01-07
0440640G;Ecole élémentaire publique Fellonneau;ECOLE ELEMENTAIRE PUBLIQUE;FELLONNEAU;Public;15 rue Fellonneau;;;44000;NANTES;Nantes;355586.9;6691192.7;EPSG:2154;47.2316130614791;-1.5545994399752192;Parfaite;Numéro de rue;151;ECOLE DE NIVEAU ELEMENTAIRE;1;OUVERT;044;52;17;44109;Loire-Atlantique;Pays de la Loire;Nantes;47.2316130614791, -1.5545994399752192;99;SANS OBJET;06;MINISTERE DE L'EDUCATION NATIONALE;1970-01-07
0440641H;Ecole élémentaire publique Fraternité;ECOLE ELEMENTAIRE PUBLIQUE;FRATERNITE (LA);Public;24 boulevard de la Fraternité;;;44100;NANTES;Nantes;353103.7;6689558.0;EPSG:2154;47.21562782053454;-1.5861101691678403;Parfaite;Numéro de rue;151;ECOLE DE NIVEAU ELEMENTAIRE;1;OUVERT;044;52;17;44109;Loire-Atlantique;Pays de la Loire;Nantes;47.21562782053454, -1.5861101691678403;99;SANS OBJET;06;MINISTERE DE L'EDUCATION NATIONALE;1970-01-07
0440648R;Ecole primaire publique Harouys;ECOLE PRIMAIRE PUBLIQUE;HAROUYS;Public;10 rue Harouys;;;44000;NANTES;Nantes;354711.9;6689759.0;EPSG:2154;47.21827281037812;-1.5650500173388664;Parfaite;Numéro de rue;151;ECOLE DE NIVEAU ELEMENTAIRE;1;OUVERT;044;52;17;44109;Loire-Atlantique;Pays de la Loire;Nantes;47.21827281037812, -1.5650500173388664;99;SANS OBJET;06;MINISTERE DE L'EDUCATION NATIONALE;1970-01-07
0440650T;Ecole primaire publique La Jonelière;ECOLE PRIMAIRE PUBLIQUE;JONELIERE (LA);Public;76 route de la Jonelière;;;44300;NANTES;Nantes;356342.6;6693456.7;EPSG:2154;47.25235297883093;-1.5463498788417127;Correcte;Numéro de rue;151;ECOLE DE NIVEAU ELEMENTAIRE;1;OUVERT;044;52;17;44109;Loire-Atlantique;Pays de la Loire;Nantes;47.25235297883093, -1.5463498788417127;99;SANS OBJET;06;MINISTERE DE L'EDUCATION NATIONALE;1970-01-07
0440687H;Ecole élémentaire publique Alain-Fournier;ECOLE ELEMENTAIRE PUBLIQUE;ALAIN-FOURNIER;Public;87 rue du Bois Hardy;;;44100;NANTES;Nantes;351846.2;6688353.6;EPSG:2154;47.20414502030416;-1.6017703849968057;Parfaite;Numéro de rue;151;ECOLE DE NIVEAU ELEMENTAIRE;1;OUVERT;044;52;17;44109;Loire-Atlantique;Pays de la Loire;Nantes;47.20414502030416, -1.6017703849968057;99;SANS OBJET;06;MINISTERE DE L'EDUCATION NATIONALE;1970-01-08
0440691M;Ecole primaire publique Les Batignolles;ECOLE PRIMAIRE PUBLIQUE;BATIGNOLLES (LES);Public;45 route de Paris;;;44300;NANTES;Nantes;358441.4;6693291.6;EPSG:2154;47.25195305392485;-1.518520117042086;Parfaite;Numéro de rue;151;ECOLE DE NIVEAU ELEMENTAIRE;1;OUVERT;044;52;17;44109;Loire-Atlantique;Pays de la Loire;Nantes;47.25195305392485, -1.518520117042086;99;SANS OBJET;06;MINISTERE DE L'EDUCATION NATIONALE;1970-01-08
0440692N;Ecole maternelle publique Le Baut;ECOLE MATERNELLE PUBLIQUE;BAUT (LE);Public;4 rue des Renards;;;44300;NANTES;Nantes;355132.3;6693711.4;EPSG:2154;47.254014014899326;-1.5625202377817575;Parfaite;Numéro de rue;101;ECOLE MATERNELLE;1;OUVERT;044;52;17;44109;Loire-Atlantique;Pays de la Loire;Nantes;47.254014014899326, -1.5625202377817575;99;SANS OBJET;06;MINISTERE DE L'EDUCATION NATIONALE;1970-01-08
0440693P;Ecole maternelle publique Sarah Bernhardt;ECOLE MATERNELLE PUBLIQUE;SARAH BERNHARDT;Public;38 rue de la Ripossière;;;44200;NANTES;Nantes;356891.5;6686834.8;EPSG:2154;47.19312064301049;-1.5340795906553863;Parfaite;Numéro de rue;101;ECOLE MATERNELLE;1;OUVERT;044;52;17;44109;Loire-Atlantique;Pays de la Loire;Nantes;47.19312064301049, -1.5340795906553863;99;SANS OBJET;06;MINISTERE DE L'EDUCATION NATIONALE;1970-01-08
0440696T;Ecole maternelle publique Jacques Prévert;ECOLE MATERNELLE PUBLIQUE;JACQUES PREVERT;Public;34 rue du Breil;;;44100;NANTES;Nantes;353374.1;6691119.4;EPSG:2154;47.229802180870266;-1.5837403325302695;Parfaite;Numéro de rue;101;ECOLE MATERNELLE;1;OUVERT;044;52;17;44109;Loire-Atlantique;Pays de la Loire;Nantes;47.229802180870266, -1.5837403325302695;99;SANS OBJET;06;MINISTERE DE L'EDUCATION NATIONALE;1970-01-08
0440708F;Ecole maternelle publique Frédureau;ECOLE MATERNELLE PUBLIQUE;FREDUREAU;Public;2 rue Frédureau;;;44000;NANTES;Nantes;355029.4;6690045.5;EPSG:2154;47.221012861212124;-1.5610802390000826;Parfaite;Numéro de rue;101;ECOLE MATERNELLE;1;OUVERT;044;52;17;44109;Loire-Atlantique;Pays de la Loire;Nantes;47.221012861212124, -1.5610802390000826;99;SANS OBJET;06;MINISTERE DE L'EDUCATION NATIONALE;1970-01-08
0440709G;Ecole maternelle publique Camille Claudel;ECOLE MATERNELLE PUBLIQUE;CAMILLE CLAUDEL;Public;83 rue des Renards;;;44300;NANTES;Nantes;354685.3;6694246.4;EPSG:2154;47.2585897850032;-1.5688298420401565;Parfaite;Numéro de rue;101;ECOLE MATERNELLE;1;OUVERT;044;52;17;44109;Loire-Atlantique;Pays de la Loire;Nantes;47.2585897850032, -1.5688298420401565;99;SANS OBJET;06;MINISTERE DE L'EDUCATION NATIONALE;1970-01-08
0440712K;Ecole maternelle publique Lamoricière;ECOLE MATERNELLE PUBLIQUE;LAMORICIERE;Public;14 bis rue Lamoricière;;;44100;NANTES;Nantes;354195.9;6689121.7;EPSG:2154;47.21227638611638;-1.5713695783633703;Correcte;Numéro de rue;101;ECOLE MATERNELLE;1;OUVERT;044;52;17;44109;Loire-Atlantique;Pays de la Loire;Nantes;47.21227638611638, -1.5713695783633703;99;SANS OBJET;06;MINISTERE DE L'EDUCATION NATIONALE;1970-01-08
0440724Y;Ecole maternelle publique Docteur Teillais;ECOLE MATERNELLE PUBLIQUE;DOCTEUR TEILLAIS;Public;21 rue du Docteur Teillais;;;44300;NANTES;Nantes;357210.2;6691430.1;EPSG:2154;47.23458726420742;-1.5333598322123299;Parfaite;Numéro de rue;101;ECOLE MATERNELLE;1;OUVERT;044;52;17;44109;Loire-Atlantique;Pays de la Loire;Nantes;47.23458726420742, -1.5333598322123299;99;SANS OBJET;06;MINISTERE DE L'EDUCATION NATIONALE;1970-01-09
0440991N;Ecole maternelle publique Les Plantes;ECOLE MATERNELLE PUBLIQUE;PLANTES (LES);Public;19 avenue des Plantes;;;44100;NANTES;Nantes;353436.4;6691616.5;EPSG:2154;47.23430239645916;-1.583299463288091;Parfaite;Numéro de rue;101;ECOLE MATERNELLE;1;OUVERT;044;52;17;44109;Loire-Atlantique;Pays de la Loire;Nantes;47.23430239645916, -1.583299463288091;99;SANS OBJET;06;MINISTERE DE L'EDUCATION NATIONALE;1970-06-02
0440998W;Ecole élémentaire publique Henri Bergson;ECOLE ELEMENTAIRE PUBLIQUE;HENRI BERGSON;Public;5 rue de Madrid;;;44000;NANTES;Nantes;357211.8;6689097.7;EPSG:2154;47.21362483840058;-1.531570457936547;Parfaite;Numéro de rue;151;ECOLE DE NIVEAU ELEMENTAIRE;1;OUVERT;044;52;17;44109;Loire-Atlantique;Pays de la Loire;Nantes;47.21362483840058, -1.531570457936547;99;SANS OBJET;06;MINISTERE DE L'EDUCATION NATIONALE;1970-01-02
0441412W;Ecole primaire privée Notre-Dame de Toutes Aides;ECOLE PRIMAIRE PRIVEE;N-D.DE TOUTES AIDES;Privé;12 rue des Epinettes;;;44319;NANTES CEDEX 3;Nantes;358216.3;6690680.1;EPSG:2154;47.22836530022264;-1.519516261723193;Parfaite;Numéro de rue;151;ECOLE DE NIVEAU ELEMENTAIRE;1;OUVERT;044;52;17;44109;Loire-Atlantique;Pays de la Loire;Nantes;47.22836530022264, -1.519516261723193;30;CONTRAT D'ASSOCIATION TOUTES CLASSES;06;MINISTERE DE L'EDUCATION NATIONALE;1971-03-19
0441422G;Ecole primaire privée Sainte Marie;ECOLE PRIMAIRE PRIVEE;STE MARIE;Privé;9 avenue Bascher;;;44000;NANTES;Nantes;356196.6;6690121.2;EPSG:2154;47.222298840659604;-1.5457396163620587;Parfaite;Numéro de rue;151;ECOLE DE NIVEAU ELEMENTAIRE;1;OUVERT;044;52;17;44109;Loire-Atlantique;Pays de la Loire;Nantes;47.222298840659604, -1.5457396163620587;30;CONTRAT D'ASSOCIATION TOUTES CLASSES;06;MINISTERE DE L'EDUCATION NATIONALE;1971-03-19
0441486B;Ecole primaire privée Saint Yves;ECOLE PRIMAIRE PRIVEE;ST YVES;Privé;7 rue Jean Marie Potiron;;;44300;NANTES;Nantes;358533.5;6695309.4;EPSG:2154;47.27013606768363;-1.518830323354855;Correcte;Rue;151;ECOLE DE NIVEAU ELEMENTAIRE;1;OUVERT;044;52;17;44109;Loire-Atlantique;Pays de la Loire;Nantes;47.27013606768363, -1.518830323354855;30;CONTRAT D'ASSOCIATION TOUTES CLASSES;06;MINISTERE DE L'EDUCATION NATIONALE;1971-03-22
0441488D;Ecole primaire privée Saint Donatien;ECOLE PRIMAIRE PRIVEE;ST DONATIEN;Privé;61 bis rue du Coudray;;;44000;NANTES;Nantes;356435.6;6690993.9;EPSG:2154;47.23026622246208;-1.5432497212164098;Parfaite;Numéro de rue;151;ECOLE DE NIVEAU ELEMENTAIRE;1;OUVERT;044;52;17;44109;Loire-Atlantique;Pays de la Loire;Nantes;47.23026622246208, -1.5432497212164098;30;CONTRAT D'ASSOCIATION TOUTES CLASSES;06;MINISTERE DE L'EDUCATION NATIONALE;1971-03-22
0441551X;Section d'Enseignement Professionnel du lycée polyvalent les Bourdonnières;SECTION ENSEIGNT PROFESSIONNEL;LPO LES BOURDONNIERES;Public;Rue DE LA PERRIERE;;;44200;NANTES;Nantes;358102.1;6685991.5;EPSG:2154;47.18616538280837;-1.5174799567161925;Correcte;Rue;334;SECTION D ENSEIGNEMENT PROFESSIONNEL;1;OUVERT;044;52;17;44109;Loire-Atlantique;Pays de la Loire;Nantes;47.18616538280837, -1.5174799567161925;99;SANS OBJET;06;MINISTERE DE L'EDUCATION NATIONALE;1972-01-25
0441608J;Collège La Durantière;COLLEGE;LA DURANTIERE;Public;17 rue Baptiste Marcet;;;44100;NANTES;Nantes;351747.9;6689552.2;EPSG:2154;47.21486580010774;-1.6039894137236577;Parfaite;Numéro de rue;340;COLLEGE;1;OUVERT;044;52;17;44109;Loire-Atlantique;Pays de la Loire;Nantes;47.21486580010774, -1.6039894137236577;99;SANS OBJET;06;MINISTERE DE L'EDUCATION NATIONALE;1973-03-26
0441739B;Ecole maternelle publique Louise Michel;ECOLE MATERNELLE PUBLIQUE;LOUISE MICHEL;Public;21 rue Paul Ramadier;;;44200;NANTES;Nantes;357186.2;6688229.8;EPSG:2154;47.20581101848446;-1.5312504630460555;Parfaite;Numéro de rue;101;ECOLE MATERNELLE;1;OUVERT;044;52;17;44109;Loire-Atlantique;Pays de la Loire;Nantes;47.20581101848446, -1.5312504630460555;99;SANS OBJET;06;MINISTERE DE L'EDUCATION NATIONALE;1976-04-23
0441931K;Collège privé Saint Joseph du Loquidy-La Salle;COLLEGE PRIVE;ST JOSEPH DU LOQUIDY-LA SALLE;Privé;73 boulevard Michelet;;;44322;NANTES CEDEX 3;Nantes;355378.3;6691793.3;EPSG:2154;47.23690274758025;-1.5578098349680238;Parfaite;Numéro de rue;340;COLLEGE;1;OUVERT;044;52;17;44109;Loire-Atlantique;Pays de la Loire;Nantes;47.23690274758025, -1.5578098349680238;30;CONTRAT D'ASSOCIATION TOUTES CLASSES;06;MINISTERE DE L'EDUCATION NATIONALE;1980-09-01
0441932L;Collège privé Blanche de Castille;COLLEGE PRIVE;BLANCHE DE CASTILLE;Privé;43  BOULEVARD JULES VERNE;;61902;44319;NANTES CEDEX 3;Nantes;357223.3;6691683.8;EPSG:2154;47.236874235960315;-1.5333793806092841;Correcte;Numéro de rue;340;COLLEGE;1;OUVERT;044;52;17;44109;Loire-Atlantique;Pays de la Loire;Nantes;47.236874235960315, -1.5333793806092841;30;CONTRAT D'ASSOCIATION TOUTES CLASSES;06;MINISTERE DE L'EDUCATION NATIONALE;1980-09-01
0441935P;Collège privé Notre-Dame de Toutes Aides;COLLEGE PRIVE;NOTRE-DAME DE TOUTES AIDES;Privé;12 rue des Epinettes;;;44319;NANTES CEDEX 3;Nantes;358216.3;6690680.1;EPSG:2154;47.22836530022264;-1.519516261723193;Parfaite;Numéro de rue;340;COLLEGE;1;OUVERT;044;52;17;44109;Loire-Atlantique;Pays de la Loire;Nantes;47.22836530022264, -1.519516261723193;30;CONTRAT D'ASSOCIATION TOUTES CLASSES;06;MINISTERE DE L'EDUCATION NATIONALE;1980-09-01
0441936R;Collège privé La Perverie Sacré-Coeur;COLLEGE PRIVE;LA PERVERIE SACRE COEUR;Privé;63  RUE DE LA PERVERIE;;;44322;NANTES CEDEX 3;Nantes;355082.2;6692546.1;EPSG:2154;47.24351476296307;-1.5622918229573297;Correcte;Numéro de rue;340;COLLEGE;1;OUVERT;044;52;17;44109;Loire-Atlantique;Pays de la Loire;Nantes;47.24351476296307, -1.5622918229573297;30;CONTRAT D'ASSOCIATION TOUTES CLASSES;06;MINISTERE DE L'EDUCATION NATIONALE;1980-09-01
0441938T;Collège privé Saint Stanislas;COLLEGE PRIVE;ST STANISLAS;Privé;2 rue SAINT STANISLAS;;;44009;NANTES CEDEX 1;Nantes;355407.5;6690305.4;EPSG:2154;47.223545165985726;-1.5562902897822823;Parfaite;Numéro de rue;340;COLLEGE;1;OUVERT;044;52;17;44109;Loire-Atlantique;Pays de la Loire;Nantes;47.223545165985726, -1.5562902897822823;30;CONTRAT D'ASSOCIATION TOUTES CLASSES;06;MINISTERE DE L'EDUCATION NATIONALE;1980-09-01
0441982R;Lycée général et technologique privé Bretagne;LYCEE GEN.ET TECHNOL.PRIVE;DE BRETAGNE;Privé;15  RUE DU LANDREAU;;;44300;NANTES;Nantes;358163.5;6691151.6;EPSG:2154;47.232575902363024;-1.5205694787085215;Parfaite;Numéro de rue;300;LYCEE ENSEIGNT GENERAL ET TECHNOLOGIQUE;1;OUVERT;044;52;17;44109;Loire-Atlantique;Pays de la Loire;Nantes;47.232575902363024, -1.5205694787085215;30;CONTRAT D'ASSOCIATION TOUTES CLASSES;06;MINISTERE DE L'EDUCATION NATIONALE;1981-09-01
0441993C;Lycée général et technologique Carcouët;LYCEE GENERAL ET TECHNOLOGIQUE;CARCOUET;Public;115 boulevard DU MASSACRE;;98430;44184;NANTES CEDEX 4;Nantes;352687.6;6691330.6;EPSG:2154;47.23134140761392;-1.5929603553867224;Correcte;Numéro de rue;300;LYCEE ENSEIGNT GENERAL ET TECHNOLOGIQUE;1;OUVERT;044;52;17;44109;Loire-Atlantique;Pays de la Loire;Nantes;47.23134140761392, -1.5929603553867224;99;SANS OBJET;06;MINISTERE DE L'EDUCATION NATIONALE;1982-09-01
0442024L;Ecole primaire publique Maison Neuve;ECOLE PRIMAIRE PUBLIQUE;MAISON NEUVE;Public;7 rue Eugénie Cotton;;;44300;NANTES;Nantes;358657.3;6694085.0;EPSG:2154;47.25919513489105;-1.5162698408737654;Correcte;Numéro de rue;151;ECOLE DE NIVEAU ELEMENTAIRE;1;OUVERT;044;52;17;44109;Loire-Atlantique;Pays de la Loire;Nantes;47.25919513489105, -1.5162698408737654;99;SANS OBJET;06;MINISTERE DE L'EDUCATION NATIONALE;1983-09-01
0442074R;Ecole élémentaire publique Anatole de Monzie;ECOLE ELEMENTAIRE PUBLIQUE;ANATOLE DE MONZIE;Public;Rue Léon Buerne;;;44200;NANTES;Nantes;356371.9;6687953.9;EPSG:2154;47.2029103183295;-1.5417805099112682;Parfaite;Numéro de rue;151;ECOLE DE NIVEAU ELEMENTAIRE;1;OUVERT;044;52;17;44109;Loire-Atlantique;Pays de la Loire;Nantes;47.2029103183295, -1.5417805099112682;99;SANS OBJET;06;MINISTERE DE L'EDUCATION NATIONALE;1987-09-01
0442092K;Lycée professionnel maritime Jacques Cassard;LYCEE PROFESSIONNEL MARITIME;JACQUES CASSARD;Public;111 rue du Port Boyer;;51536;44315;NANTES CEDEX 3;Nantes;357312.6;6692064.8;EPSG:2154;47.24034471009416;-1.53248985791962;Correcte;Rue;320;LYCEE PROFESSIONNEL;1;OUVERT;044;52;17;44109;Loire-Atlantique;Pays de la Loire;Nantes;47.24034471009416, -1.53248985791962;99;SANS OBJET;28;MER;1957-09-15
0442104Y;Ecole primaire privée Diwan;ECOLE ELEMENTAIRE PRIVEE;DIWAN;Privé;160 rue du Corps de Garde;;;44100;NANTES;Nantes;351929.5;6690041.0;EPSG:2154;47.219354093168604;-1.6019702314405084;Parfaite;Numéro de rue;151;ECOLE DE NIVEAU ELEMENTAIRE;1;OUVERT;044;52;17;44109;Loire-Atlantique;Pays de la Loire;Nantes;47.219354093168604, -1.6019702314405084;30;CONTRAT D'ASSOCIATION TOUTES CLASSES;06;MINISTERE DE L'EDUCATION NATIONALE;1989-09-01
0442725Y;Lycée polyvalent privé Talensac - Jeanne-Bernard;LYCEE POLYVALENT PRIVE;TALENSAC - JEANNE BERNARD;Privé;18  RUE TALENSAC;;10225;44002;NANTES CEDEX 1;Nantes;355199.7;6690132.5;EPSG:2154;47.2218832777331;-1.558899931519581;Correcte;Numéro de rue;306;LYCEE POLYVALENT;1;OUVERT;044;52;17;44109;Loire-Atlantique;Pays de la Loire;Nantes;47.2218832777331, -1.558899931519581;30;CONTRAT D'ASSOCIATION TOUTES CLASSES;06;MINISTERE DE L'EDUCATION NATIONALE;2012-09-01
0442726Z;Section d'enseignement professionnel privée du LPO Talensac - Jeanne-Bernard;SECTION ENSEIGT PROFES.PRIVEE;LPO TALENSAC - JEANNE BERNARD;Privé;18 rue TALENSAC;;10225;44002;NANTES CEDEX 1;Nantes;355210.7;6690178.5;EPSG:2154;47.222302425244024;-1.5587898889840481;Parfaite;Numéro de rue;334;SECTION D ENSEIGNEMENT PROFESSIONNEL;1;OUVERT;044;52;17;44109;Loire-Atlantique;Pays de la Loire;Nantes;47.222302425244024, -1.5587898889840481;30;CONTRAT D'ASSOCIATION TOUTES CLASSES;06;MINISTERE DE L'EDUCATION NATIONALE;2012-09-01
0442766T;Section d'enseignement professionnel;SECTION ENSEIGNT PROFESSIONNEL;LPO NELSON MANDELA;Public;10 rue PIERRE VIDAL-NAQUET;;56509;44265;NANTES CEDEX 2;Nantes;357103.0;6688536.8;EPSG:2154;47.208527340944066;-1.5325804448018916;Parfaite;Numéro de rue;334;SECTION D ENSEIGNEMENT PROFESSIONNEL;1;OUVERT;044;52;17;44109;Loire-Atlantique;Pays de la Loire;Nantes;47.208527340944066, -1.5325804448018916;99;SANS OBJET;06;MINISTERE DE L'EDUCATION NATIONALE;2014-09-01
0442965J;Ecole primaire publique Germaine Tillion;ECOLE PRIMAIRE PUBLIQUE;GERMAINE TILLION;Public;8 cours Jeanne Allain;;;44300;NANTES;Nantes;359201.7;6695077.2;EPSG:2154;47.26839282093327;-1.5098315596624163;MANUEL;Numéro de rue;151;ECOLE DE NIVEAU ELEMENTAIRE;1;OUVERT;044;52;17;44109;Loire-Atlantique;Pays de la Loire;Nantes;47.26839282093327, -1.5098315596624163;99;SANS OBJET;06;MINISTERE DE L'EDUCATION NATIONALE;2022-09-01
0440025N;Collège Hector Berlioz;COLLEGE;HECTOR BERLIOZ;Public;122 boulevard Robert Schuman;;;44300;NANTES;Nantes;354356.8;6692251.6;EPSG:2154;47.2404904329111;-1.5716401397055042;Parfaite;Numéro de rue;340;COLLEGE;1;OUVERT;044;52;17;44109;Loire-Atlantique;Pays de la Loire;Nantes;47.2404904329111, -1.5716401397055042;99;SANS OBJET;06;MINISTERE DE L'EDUCATION NATIONALE;1965-05-01
0440029T;Lycée général et technologique Livet;LYCEE GENERAL ET TECHNOLOGIQUE;LIVET;Public;16 rue DUFOUR;;94225;44042;NANTES CEDEX 1;Nantes;356257.7;6690472.4;EPSG:2154;47.2254869894435;-1.5452005346779734;Parfaite;Numéro de rue;300;LYCEE ENSEIGNT GENERAL ET TECHNOLOGIQUE;1;OUVERT;044;52;17;44109;Loire-Atlantique;Pays de la Loire;Nantes;47.2254869894435, -1.5452005346779734;99;SANS OBJET;06;MINISTERE DE L'EDUCATION NATIONALE;1965-05-01
0440086E;Lycée général et technologique La Colinière;LYCEE GENERAL ET TECHNOLOGIQUE;LA COLINIERE;Public;129 rue DU LANDREAU;;81904;44319;NANTES CEDEX 3;Nantes;358806.6;6691584.1;EPSG:2154;47.23679414709965;-1.5124099058282097;Parfaite;Numéro de rue;300;LYCEE ENSEIGNT GENERAL ET TECHNOLOGIQUE;1;OUVERT;044;52;17;44109;Loire-Atlantique;Pays de la Loire;Nantes;47.23679414709965, -1.5124099058282097;99;SANS OBJET;06;MINISTERE DE L'EDUCATION NATIONALE;1965-11-30
0440206K;Collège privé Notre-Dame du Bon Conseil;COLLEGE PRIVE;ND DU BON CONSEIL;Privé;27 rue DU BALLET;;60105;44001;NANTES CEDEX 1;Nantes;355139.0;6691310.9;EPSG:2154;47.23244279366247;-1.5605995988080972;Parfaite;Numéro de rue;340;COLLEGE;1;OUVERT;044;52;17;44109;Loire-Atlantique;Pays de la Loire;Nantes;47.23244279366247, -1.5605995988080972;30;CONTRAT D'ASSOCIATION TOUTES CLASSES;06;MINISTERE DE L'EDUCATION NATIONALE;1967-03-07
0440288Z;Lycée général et technologique Albert Camus;LYCEE GENERAL ET TECHNOLOGIQUE;ALBERT CAMUS;Public;11  RUE ETIENNE COUTAN;;;44107;NANTES CEDEX 4;Nantes;351230.1;6688450.1;EPSG:2154;47.20468895900564;-1.6099696774353849;Parfaite;Numéro de rue;300;LYCEE ENSEIGNT GENERAL ET TECHNOLOGIQUE;1;OUVERT;044;52;17;44109;Loire-Atlantique;Pays de la Loire;Nantes;47.20468895900564, -1.6099696774353849;99;SANS OBJET;06;MINISTERE DE L'EDUCATION NATIONALE;1968-03-13
0440619J;Ecole élémentaire publique Marie-Anne du Boccage;ECOLE ELEMENTAIRE PUBLIQUE;MARIE-ANNE DU BOCCAGE;Public;22 bis rue Marie-Anne du Boccage;;;44000;NANTES;Nantes;354075.7;6688900.0;EPSG:2154;47.21022120616839;-1.572785482913078;Parfaite;Numéro de rue;151;ECOLE DE NIVEAU ELEMENTAIRE;1;OUVERT;044;52;17;44109;Loire-Atlantique;Pays de la Loire;Nantes;47.21022120616839, -1.572785482913078;99;SANS OBJET;06;MINISTERE DE L'EDUCATION NATIONALE;1970-01-07
0440627T;Ecole élémentaire publique Chêne d'Aron;ECOLE ELEMENTAIRE PUBLIQUE;CHENE D ARON;Public;3 rue de l'Heronnière;;;44000;NANTES;Nantes;354985.8;6689068.1;EPSG:2154;47.21220563790411;-1.560909821931182;Parfaite;Numéro de rue;151;ECOLE DE NIVEAU ELEMENTAIRE;1;OUVERT;044;52;17;44109;Loire-Atlantique;Pays de la Loire;Nantes;47.21220563790411, -1.560909821931182;99;SANS OBJET;06;MINISTERE DE L'EDUCATION NATIONALE;1970-01-22
0440628U;Ecole élémentaire publique Sully;ECOLE ELEMENTAIRE PUBLIQUE;SULLY;Public;5 rue Henri Cochard;;;44000;NANTES;Nantes;355919.4;6690243.2;EPSG:2154;47.22325170225945;-1.5494894649404933;Parfaite;Rue;151;ECOLE DE NIVEAU ELEMENTAIRE;1;OUVERT;044;52;17;44109;Loire-Atlantique;Pays de la Loire;Nantes;47.22325170225945, -1.5494894649404933;99;SANS OBJET;06;MINISTERE DE L'EDUCATION NATIONALE;1970-01-07
0440651U;Ecole élémentaire publique Ledru-Rollin;ECOLE ELEMENTAIRE PUBLIQUE;LEDRU-ROLLIN;Public;47 rue Ledru-Rollin;;;44200;NANTES;Nantes;356849.6;6686753.5;EPSG:2154;47.19236827395964;-1.5345704414084664;Parfaite;Numéro de rue;151;ECOLE DE NIVEAU ELEMENTAIRE;1;OUVERT;044;52;17;44109;Loire-Atlantique;Pays de la Loire;Nantes;47.19236827395964, -1.5345704414084664;99;SANS OBJET;06;MINISTERE DE L'EDUCATION NATIONALE;1970-01-07
0440652V;Ecole élémentaire publique Urbain le Verrier;ECOLE ELEMENTAIRE PUBLIQUE;URBAIN LE VERRIER;Public;11 rue Urbain Le Verrier;;;44300;NANTES;Nantes;358195.9;6692181.0;EPSG:2154;47.24184471271331;-1.5209205022192074;Parfaite;Numéro de rue;151;ECOLE DE NIVEAU ELEMENTAIRE;1;OUVERT;044;52;17;44109;Loire-Atlantique;Pays de la Loire;Nantes;47.24184471271331, -1.5209205022192074;99;SANS OBJET;06;MINISTERE DE L'EDUCATION NATIONALE;1970-01-07
0440654X;Ecole primaire publique Longchamp;ECOLE PRIMAIRE PUBLIQUE;LONGCHAMP;Public;6 rue du Vélodrome;;;44300;NANTES;Nantes;354265.3;6692045.9;EPSG:2154;47.23859402747202;-1.5726902803672882;Parfaite;Numéro de rue;151;ECOLE DE NIVEAU ELEMENTAIRE;1;OUVERT;044;52;17;44109;Loire-Atlantique;Pays de la Loire;Nantes;47.23859402747202, -1.5726902803672882;99;SANS OBJET;06;MINISTERE DE L'EDUCATION NATIONALE;1970-01-07
0440656Z;Ecole élémentaire publique André Lermite;ECOLE ELEMENTAIRE PUBLIQUE;ANDRE LERMITE;Public;5 rue Evariste Luminais;;;44100;NANTES;Nantes;354275.3;6689132.1;EPSG:2154;47.21241121248546;-1.5703302387758586;Parfaite;Numéro de rue;151;ECOLE DE NIVEAU ELEMENTAIRE;1;OUVERT;044;52;17;44109;Loire-Atlantique;Pays de la Loire;Nantes;47.21241121248546, -1.5703302387758586;99;SANS OBJET;06;MINISTERE DE L'EDUCATION NATIONALE;1970-01-07
0440658B;Ecole élémentaire publique Les Marsauderies;ECOLE ELEMENTAIRE PUBLIQUE;MARSAUDERIES (LES);Public;1 rue de la Bertiniere;;;44300;NANTES;Nantes;357533.6;6692324.7;EPSG:2154;47.24279474344717;-1.5297702346217672;Parfaite;Numéro de rue;151;ECOLE DE NIVEAU ELEMENTAIRE;1;OUVERT;044;52;17;44109;Loire-Atlantique;Pays de la Loire;Nantes;47.24279474344717, -1.5297702346217672;99;SANS OBJET;06;MINISTERE DE L'EDUCATION NATIONALE;1970-01-07
0440661E;Ecole élémentaire publique Léon Blum;ECOLE ELEMENTAIRE PUBLIQUE;LEON BLUM;Public;5 rue Léon Blum;;;44000;NANTES;Nantes;355422.9;6689796.6;EPSG:2154;47.21898021823771;-1.5556994103874435;Parfaite;Numéro de rue;151;ECOLE DE NIVEAU ELEMENTAIRE;1;OUVERT;044;52;17;44109;Loire-Atlantique;Pays de la Loire;Nantes;47.21898021823771, -1.5556994103874435;99;SANS OBJET;06;MINISTERE DE L'EDUCATION NATIONALE;1970-01-07
0440674U;Ecole élémentaire publique Port Boyer;ECOLE ELEMENTAIRE PUBLIQUE;PORT BOYER;Public;53 rue de l'Eraudière;;;44300;NANTES;Nantes;356637.3;6692075.0;EPSG:2154;47.24008726924601;-1.5414096717800474;Parfaite;Numéro de rue;151;ECOLE DE NIVEAU ELEMENTAIRE;1;OUVERT;044;52;17;44109;Loire-Atlantique;Pays de la Loire;Nantes;47.24008726924601, -1.5414096717800474;99;SANS OBJET;06;MINISTERE DE L'EDUCATION NATIONALE;1970-01-08
0440683D;Ecole élémentaire publique Gaston Serpette;ECOLE ELEMENTAIRE PUBLIQUE;GASTON SERPETTE;Public;46 rue du Douet Garnier;;;44000;NANTES;Nantes;353898.0;6690704.0;EPSG:2154;47.226342186815366;-1.576509838493324;Parfaite;Numéro de rue;151;ECOLE DE NIVEAU ELEMENTAIRE;1;OUVERT;044;52;17;44109;Loire-Atlantique;Pays de la Loire;Nantes;47.226342186815366, -1.576509838493324;99;SANS OBJET;06;MINISTERE DE L'EDUCATION NATIONALE;1970-01-08
0440694R;Ecole maternelle publique Joseph Blanchart;ECOLE MATERNELLE PUBLIQUE;JOSEPH BLANCHART;Public;94 rue Joseph Blanchart;;;44100;NANTES;Nantes;353700.7;6688427.8;EPSG:2154;47.20578175386947;-1.5773700897965257;Parfaite;Numéro de rue;101;ECOLE MATERNELLE;1;OUVERT;044;52;17;44109;Loire-Atlantique;Pays de la Loire;Nantes;47.20578175386947, -1.5773700897965257;99;SANS OBJET;06;MINISTERE DE L'EDUCATION NATIONALE;1970-01-08
0440700X;Ecole maternelle publique Le Chêne d'Aron;ECOLE MATERNELLE PUBLIQUE;CHENE D ARON;Public;4 rue du Chêne d'Aron;;;44000;NANTES;Nantes;355029.1;6689043.4;EPSG:2154;47.21200614370755;-1.560319853666957;Parfaite;Numéro de rue;101;ECOLE MATERNELLE;1;OUVERT;044;52;17;44109;Loire-Atlantique;Pays de la Loire;Nantes;47.21200614370755, -1.560319853666957;99;SANS OBJET;06;MINISTERE DE L'EDUCATION NATIONALE;1970-01-08
0440705C;Ecole maternelle publique Maurice Macé;ECOLE MATERNELLE PUBLIQUE;MAURICE MACE;Public;22 rue du Pontereau - Doulon;;;44300;NANTES;Nantes;359422.8;6691547.5;EPSG:2154;47.23678174343461;-1.5042505323975361;Parfaite;Numéro de rue;101;ECOLE MATERNELLE;1;OUVERT;044;52;17;44109;Loire-Atlantique;Pays de la Loire;Nantes;47.23678174343461, -1.5042505323975361;99;SANS OBJET;06;MINISTERE DE L'EDUCATION NATIONALE;1970-01-08
0440706D;Ecole maternelle publique Fellonneau;ECOLE MATERNELLE PUBLIQUE;FELLONNEAU;Public;15 rue Fellonneau;;;44000;NANTES;Nantes;355569.3;6691178.0;EPSG:2154;47.231471808228044;-1.5548204695636043;Parfaite;Numéro de rue;101;ECOLE MATERNELLE;1;OUVERT;044;52;17;44109;Loire-Atlantique;Pays de la Loire;Nantes;47.231471808228044, -1.5548204695636043;99;SANS OBJET;06;MINISTERE DE L'EDUCATION NATIONALE;1970-01-08
0440710H;Ecole maternelle publique Urbain le Verrier;ECOLE MATERNELLE PUBLIQUE;URBAIN LE VERRIER;Public;11 rue Urbain Le Verrier;;;44300;NANTES;Nantes;358195.9;6692181.0;EPSG:2154;47.24184471271331;-1.5209205022192074;Parfaite;Numéro de rue;101;ECOLE MATERNELLE;1;OUVERT;044;52;17;44109;Loire-Atlantique;Pays de la Loire;Nantes;47.24184471271331, -1.5209205022192074;99;SANS OBJET;06;MINISTERE DE L'EDUCATION NATIONALE;1970-01-08
0440715N;Ecole maternelle publique Les Marsauderies;ECOLE MATERNELLE PUBLIQUE;MARSAUDERIES (LES);Public;9 rue de la Bertinière;;;44300;NANTES;Nantes;357437.0;6692370.1;EPSG:2154;47.24315292085051;-1.5310795715839725;Parfaite;Numéro de rue;101;ECOLE MATERNELLE;1;OUVERT;044;52;17;44109;Loire-Atlantique;Pays de la Loire;Nantes;47.24315292085051, -1.5310795715839725;99;SANS OBJET;06;MINISTERE DE L'EDUCATION NATIONALE;1970-01-08
0440717R;Ecole maternelle publique Emile Péhant;ECOLE MATERNELLE PUBLIQUE;EMILE PEHANT;Public;21 rue Emile Péhant;;;44000;NANTES;Nantes;355896.1;6688973.1;EPSG:2154;47.211824270546956;-1.5488305002416738;Parfaite;Numéro de rue;101;ECOLE MATERNELLE;1;OUVERT;044;52;17;44109;Loire-Atlantique;Pays de la Loire;Nantes;47.211824270546956, -1.5488305002416738;99;SANS OBJET;06;MINISTERE DE L'EDUCATION NATIONALE;1970-01-08
0441045X;Ecole maternelle publique Les Chataigniers;ECOLE MATERNELLE PUBLIQUE;CHATAIGNIERS (LES);Public;77 rue de la Contrie;;;44100;NANTES;Nantes;352066.9;6690135.5;EPSG:2154;47.220275440058636;-1.6002304300150547;Parfaite;Numéro de rue;101;ECOLE MATERNELLE;1;OUVERT;044;52;17;44109;Loire-Atlantique;Pays de la Loire;Nantes;47.220275440058636, -1.6002304300150547;99;SANS OBJET;06;MINISTERE DE L'EDUCATION NATIONALE;1970-10-26
0441413X;Ecole primaire privée Le Sacré-Coeur;ECOLE PRIMAIRE PRIVEE;LE SACRE-COEUR;Privé;24 rue de la salle Verte;;;44100;NANTES;Nantes;353197.7;6689231.4;EPSG:2154;47.21274160686292;-1.584619830205974;Parfaite;Numéro de rue;151;ECOLE DE NIVEAU ELEMENTAIRE;1;OUVERT;044;52;17;44109;Loire-Atlantique;Pays de la Loire;Nantes;47.21274160686292, -1.584619830205974;30;CONTRAT D'ASSOCIATION TOUTES CLASSES;06;MINISTERE DE L'EDUCATION NATIONALE;1971-03-19
0441414Y;Ecole primaire privée Sainte Madeleine La Joliverie;ECOLE PRIMAIRE PRIVEE;STE MADELEINE LA JOLIVERIE;Privé;10 quai Hoche;;96522;44265;NANTES CEDEX 2;Nantes;355631.3;6688416.5;EPSG:2154;47.20668436975939;-1.5518995509711526;Parfaite;Numéro de rue;151;ECOLE DE NIVEAU ELEMENTAIRE;1;OUVERT;044;52;17;44109;Loire-Atlantique;Pays de la Loire;Nantes;47.20668436975939, -1.5518995509711526;30;CONTRAT D'ASSOCIATION TOUTES CLASSES;06;MINISTERE DE L'EDUCATION NATIONALE;1971-03-19
0441417B;Ecole primaire privée Saint Nicolas;ECOLE PRIMAIRE PRIVEE;ST NICOLAS;Privé;5 rue Dugommier;;;44000;NANTES;Nantes;354895.2;6689480.5;EPSG:2154;47.215865067496;-1.56241949144605;Parfaite;Numéro de rue;151;ECOLE DE NIVEAU ELEMENTAIRE;1;OUVERT;044;52;17;44109;Loire-Atlantique;Pays de la Loire;Nantes;47.215865067496, -1.56241949144605;30;CONTRAT D'ASSOCIATION TOUTES CLASSES;06;MINISTERE DE L'EDUCATION NATIONALE;1971-03-19
0441435W;Ecole primaire privée Saint Clair;ECOLE PRIMAIRE PRIVEE;ST CLAIR;Privé;34 rue Danton;;;44100;NANTES;Nantes;352898.9;6689333.9;EPSG:2154;47.213506663875826;-1.5886396453488845;Parfaite;Numéro de rue;151;ECOLE DE NIVEAU ELEMENTAIRE;1;OUVERT;044;52;17;44109;Loire-Atlantique;Pays de la Loire;Nantes;47.213506663875826, -1.5886396453488845;30;CONTRAT D'ASSOCIATION TOUTES CLASSES;06;MINISTERE DE L'EDUCATION NATIONALE;1971-03-19
0441437Y;Ecole primaire privée Sainte Agnès;ECOLE PRIMAIRE PRIVEE;STE AGNES;Privé;55 rue du Chanoine Larose;;;44107;NANTES CEDEX 4;Nantes;353742.6;6691356.6;EPSG:2154;47.23212638780668;-1.5790599493194366;Parfaite;Numéro de rue;151;ECOLE DE NIVEAU ELEMENTAIRE;1;OUVERT;044;52;17;44109;Loire-Atlantique;Pays de la Loire;Nantes;47.23212638780668, -1.5790599493194366;30;CONTRAT D'ASSOCIATION TOUTES CLASSES;06;MINISTERE DE L'EDUCATION NATIONALE;1971-03-19
0441470J;Ecole primaire privée Saint Pierre;ECOLE PRIMAIRE PRIVEE;ST PIERRE;Privé;7 rue du Refuge;;;44000;NANTES;Nantes;355645.7;6689875.5;EPSG:2154;47.21980497219635;-1.5528203474814417;Parfaite;Numéro de rue;151;ECOLE DE NIVEAU ELEMENTAIRE;1;OUVERT;044;52;17;44109;Loire-Atlantique;Pays de la Loire;Nantes;47.21980497219635, -1.5528203474814417;30;CONTRAT D'ASSOCIATION TOUTES CLASSES;06;MINISTERE DE L'EDUCATION NATIONALE;1971-03-19
0441484Z;Ecole primaire privée Notre-Dame des Batignolles;ECOLE PRIMAIRE PRIVEE;N-D.DES BATIGNOLLES;Privé;184 boulevard Jules Verne;;;44300;NANTES;Nantes;358035.5;6692673.7;EPSG:2154;47.24619036951912;-1.5234103272462436;Parfaite;Numéro de rue;151;ECOLE DE NIVEAU ELEMENTAIRE;1;OUVERT;044;52;17;44109;Loire-Atlantique;Pays de la Loire;Nantes;47.24619036951912, -1.5234103272462436;30;CONTRAT D'ASSOCIATION TOUTES CLASSES;06;MINISTERE DE L'EDUCATION NATIONALE;1971-03-22
0441485A;Ecole primaire privée Notre-Dame de Toutes Joies;ECOLE PRIMAIRE PRIVEE;N-D.DE TOUTES JOIES;Privé;42 boulevard Albert Thomas;;;44000;NANTES;Nantes;353891.0;6690401.3;EPSG:2154;47.223618003873476;-1.5763704759784947;Parfaite;Numéro de rue;151;ECOLE DE NIVEAU ELEMENTAIRE;1;OUVERT;044;52;17;44109;Loire-Atlantique;Pays de la Loire;Nantes;47.223618003873476, -1.5763704759784947;30;CONTRAT D'ASSOCIATION TOUTES CLASSES;06;MINISTERE DE L'EDUCATION NATIONALE;1971-03-22
0441546S;Section d'enseignement général et professionnel adapté du Collège La Noé Lambert;SEGPA;CLG LA NOE LAMBERT;Public;42 boulevard DES POILUS;;;44300;NANTES;Nantes;357656.4;6691097.4;EPSG:2154;47.23182735221781;-1.5272198272419046;Parfaite;Numéro de rue;390;SECTION ENSEIGNT GEN. ET PROF. ADAPTE;1;OUVERT;044;52;17;44109;Loire-Atlantique;Pays de la Loire;Nantes;47.23182735221781, -1.5272198272419046;99;SANS OBJET;06;MINISTERE DE L'EDUCATION NATIONALE;1972-01-25
0441851Y;Ecole primaire privée Sainte Catherine de Sienne;ECOLE PRIMAIRE PRIVEE;STE CATHERINE DE SIENNE;Privé;28 rue du Fort;;;44300;NANTES;Nantes;357415.8;6694755.8;EPSG:2154;47.264584029969946;-1.5331689630167562;Correcte;Rue;151;ECOLE DE NIVEAU ELEMENTAIRE;1;OUVERT;044;52;17;44109;Loire-Atlantique;Pays de la Loire;Nantes;47.264584029969946, -1.5331689630167562;10;HORS CONTRAT;06;MINISTERE DE L'EDUCATION NATIONALE;1977-06-22
0441878C;Ecole maternelle publique Georges Brassens;ECOLE MATERNELLE PUBLIQUE;GEORGES BRASSENS;Public;19 rue Eugène Thomas;;;44300;NANTES;Nantes;354527.5;6694634.8;EPSG:2154;47.261998345943844;-1.571210183163439;Parfaite;Numéro de rue;101;ECOLE MATERNELLE;1;OUVERT;044;52;17;44109;Loire-Atlantique;Pays de la Loire;Nantes;47.261998345943844, -1.571210183163439;99;SANS OBJET;06;MINISTERE DE L'EDUCATION NATIONALE;1978-09-15
0441879D;Ecole primaire Françoise Dolto;ECOLE PRIMAIRE PUBLIQUE;FRANCOISE DOLTO;Public;11 rue de Concarneau;;;44300;NANTES;Nantes;353920.3;6695029.9;EPSG:2154;47.26523271480759;-1.5795293798054046;Parfaite;Numéro de rue;151;ECOLE DE NIVEAU ELEMENTAIRE;1;OUVERT;044;52;17;44109;Loire-Atlantique;Pays de la Loire;Nantes;47.26523271480759, -1.5795293798054046;99;SANS OBJET;06;MINISTERE DE L'EDUCATION NATIONALE;1978-09-15
0441933M;Collège privé Externat des Enfants Nantais;COLLEGE PRIVE;EXTERNAT DES ENFANTS NANTAIS;Privé;31 avenue CAMUS;;;44042;NANTES CEDEX 1;Nantes;354111.0;6689868.5;EPSG:2154;47.2189441040484;-1.5730605215115137;Parfaite;Numéro de rue;340;COLLEGE;1;OUVERT;044;52;17;44109;Loire-Atlantique;Pays de la Loire;Nantes;47.2189441040484, -1.5730605215115137;30;CONTRAT D'ASSOCIATION TOUTES CLASSES;06;MINISTERE DE L'EDUCATION NATIONALE;1980-09-01
0441934N;Collège privé Chavagnes;COLLEGE PRIVE;CHAVAGNES;Privé;11  RUE MONDESIR;;71523;44015;NANTES CEDEX 1;Nantes;354341.2;6689706.2;EPSG:2154;47.21760532928408;-1.5698997519538338;Parfaite;Numéro de rue;340;COLLEGE;1;OUVERT;044;52;17;44109;Loire-Atlantique;Pays de la Loire;Nantes;47.21760532928408, -1.5698997519538338;30;CONTRAT D'ASSOCIATION TOUTES CLASSES;06;MINISTERE DE L'EDUCATION NATIONALE;1980-09-01
0442031U;Ecole maternelle publique Le Linot;ECOLE MATERNELLE PUBLIQUE;LINOT (LE);Public;45 rue du Port des Charrettes;;;44300;NANTES;Nantes;357835.5;6695101.4;EPSG:2154;47.26790684912831;-1.5278894925046043;Parfaite;Numéro de rue;101;ECOLE MATERNELLE;1;OUVERT;044;52;17;44109;Loire-Atlantique;Pays de la Loire;Nantes;47.26790684912831, -1.5278894925046043;99;SANS OBJET;06;MINISTERE DE L'EDUCATION NATIONALE;1986-09-01
0442047L;Ecole maternelle publique Marie-Anne du Boccage;ECOLE MATERNELLE PUBLIQUE;MARIE-ANNE DU BOCCAGE;Public;44 rue Marie-Anne du Boccage;;;44000;NANTES;Nantes;354097.9;6689380.6;EPSG:2154;47.21455222498077;-1.572860182658211;Parfaite;Numéro de rue;101;ECOLE MATERNELLE;1;OUVERT;044;52;17;44109;Loire-Atlantique;Pays de la Loire;Nantes;47.21455222498077, -1.572860182658211;99;SANS OBJET;06;MINISTERE DE L'EDUCATION NATIONALE;1985-09-01
0442342G;Section d'enseignement général et technologique du Lycée Professionnel François Arago;SECTION ENSEIGNT GEN.ET TECHNO;LP FRANCOIS ARAGO;Public;23 rue DU RECTEUR SCHMITT;;82216;44322;NANTES CEDEX 3;Nantes;355850.0;6693229.9;EPSG:2154;47.250059215187584;-1.5526794129255734;Parfaite;Numéro de rue;335;SECTION ENSEIGT GENERAL ET TECHNOLOGIQUE;1;OUVERT;044;52;17;44109;Loire-Atlantique;Pays de la Loire;Nantes;47.250059215187584, -1.5526794129255734;99;SANS OBJET;06;MINISTERE DE L'EDUCATION NATIONALE;1997-09-01
0442535S;Ecole Secondaire Privée Cours Charlier;ECOLE SECONDAIRE PRIVEE;COURS CHARLIER;Privé;26 bis rue DES HAUTS PAVES;;;44000;NANTES;Nantes;354876.2;6690358.1;EPSG:2154;47.22374276055028;-1.5633398804077752;Parfaite;Numéro de rue;340;COLLEGE;1;OUVERT;044;52;17;44109;Loire-Atlantique;Pays de la Loire;Nantes;47.22374276055028, -1.5633398804077752;10;HORS CONTRAT;06;MINISTERE DE L'EDUCATION NATIONALE;2001-10-01
0442644K;Ecole primaire publique Julien Gracq;ECOLE PRIMAIRE PUBLIQUE;JULIEN GRACQ;Public;N  3 mail Haroun Tazieff;;;44300;NANTES;Nantes;358713.0;6692027.4;EPSG:2154;47.2407303558964;-1.5139798953323222;MANUEL;Numéro de rue;151;ECOLE DE NIVEAU ELEMENTAIRE;1;OUVERT;044;52;17;44109;Loire-Atlantique;Pays de la Loire;Nantes;47.2407303558964, -1.5139798953323222;99;SANS OBJET;06;MINISTERE DE L'EDUCATION NATIONALE;2009-09-01
0442715M;section d'enseignement professionnel du LPO IFOM;SECTION ENSEIGT PROFES.PRIVEE;LPO IFOM;Privé;17 boulevard DES MARTYRS NANTAIS;;;44200;NANTES;Nantes;356077.5;6687976.4;EPSG:2154;47.202960116784816;-1.5456801491580427;Correcte;Numéro de rue;334;SECTION D ENSEIGNEMENT PROFESSIONNEL;1;OUVERT;044;52;17;44109;Loire-Atlantique;Pays de la Loire;Nantes;47.202960116784816, -1.5456801491580427;31;CONTRAT ASSOCIATION PARTIE DES CLASSES;06;MINISTERE DE L'EDUCATION NATIONALE;2011-09-01
0442775C;Lycée professionnel privé St-Félix - La Salle - Lycée des métiers;LYCEE PROF PRIVE DES METIERS;SAINT-FELIX - LA SALLE;Privé;27 rue DU BALLET;;60105;44001;NANTES CEDEX 1;Nantes;355146.4;6691228.8;EPSG:2154;47.231708754423416;-1.5604393192938208;Correcte;Numéro de rue;320;LYCEE PROFESSIONNEL;1;OUVERT;044;52;17;44109;Loire-Atlantique;Pays de la Loire;Nantes;47.231708754423416, -1.5604393192938208;30;CONTRAT D'ASSOCIATION TOUTES CLASSES;06;MINISTERE DE L'EDUCATION NATIONALE;2014-09-01
0442809P;Ecole primaire privée Arborescences;ECOLE PRIMAIRE PRIVEE;ARBORESCENCES;Privé;2 bis rue Georges Clémenceau;;;44000;NANTES;Nantes;356177.7;6689859.5;EPSG:2154;47.21993695144457;-1.5457899799476567;Parfaite;Numéro de rue;151;ECOLE DE NIVEAU ELEMENTAIRE;1;OUVERT;044;52;17;44109;Loire-Atlantique;Pays de la Loire;Nantes;47.21993695144457, -1.5457899799476567;10;HORS CONTRAT;06;MINISTERE DE L'EDUCATION NATIONALE;2015-11-09
0442835T;Collège Simone Veil;COLLEGE;SIMONE VEIL;Public;25 rue DES COLPORTEURS;;;44000;NANTES;Nantes;358699.6;6695129.0;EPSG:2154;47.26860017664039;-1.5165006127201968;Correcte;Rue;340;COLLEGE;1;OUVERT;044;52;17;44109;Loire-Atlantique;Pays de la Loire;Nantes;47.26860017664039, -1.5165006127201968;99;SANS OBJET;06;MINISTERE DE L'EDUCATION NATIONALE;2017-01-01
